NIDID,Dam_Name,Insp_Date,Submit_Date,River,City_02,County,State,Cong_Dist,Cong_Rep,Party,Owner_Type,Owner_Name,Year_Comp,Year_Mod,Private_Dam,NPDP_Hazard,Permit_Auth,Insp_Auth,Enfrc_Auth,Juris_Dam,NID_Height,NID_Storage,Dam_Length,Max_Discharge,Drain_Area,Dam_Designer,EAP,Insp_Freq,St_Reg_Dam,St_Reg_Agncy,Volume,Fed_Fund,Fed_Design,Fed_Con,Fed_Reg,Fed_Insp,Srce_Agncy,Oth_StrucID,Num_Struc,Longitude,Latitude
VA16104,CLIFFORD D. CRAIG MEMORIAL DAM,2007-09-06,2013-03-12,TRIB. TO ROANOKE RIVER,SALEM,ROANOKE CO,VA,VA09,H. MORGAN GRIFFITH (R),R,LOCAL GOVERNMENT,WESTERN VIRGINIA WATER AUTHORITY,1994,,N,HIGH,Y,Y,Y,Y,240.5,11410,976,,0.8,"HSMM, INC.",Y,0,Y,DCR,,,,,,,VA,,0,-80.175,37.225
VA07915,GREENE MOUNTAIN LAKE DAM,2008-07-14,2013-03-12,BLUE RUN,ADVANCE MILLS,GREENE,VA,VA05,ROBERT HURT (R),R,PRIVATE,NATHANIEL GREENE DEVELOPMENT COMPANY,1969,,N,SIGNIFICANT,Y,Y,Y,Y,33,1408,450,,7,LARRY E. LAMB,Y,0,Y,DCR,,,,,,,VA,,0,-78.4366,38.27
VA06906,LEHMANS DAM,,2013-03-12,GOUGH RUN,MARLBORO,FREDERICK,VA,VA10,FRANK R. WOLF (R),R,PRIVATE,SAMUEL G. LEHMAN,1971,,N,LOW,Y,Y,Y,Y,24,144,240,,,SAMUEL G. LEHMAN,NR,0,Y,DCR,,,,,,,VA,,0,-78.3083,39.1516
VA13905,LURAY,2010-12-22,2013-02-28,SOUTH FORK SHENANDOAH RIVER,RILEYVILLE,PAGE,VA,VA06,BOB GOODLATTE (R),R,PUBLIC UTILITY,POTOMAC EDISON CO,1927,1986S,N,LOW,N,N,N,N,21.89,880,669,,1383,,NR,3,N,DCR,,,,,FERC,FERC,FERC,,1,-78.4999,38.6774
VA06106,MATHEWS DAM,,2013-03-12,TR-GAP RUN,RECTORTOWN,FAUQUIER,VA,VA05,ROBERT HURT (R),R,PRIVATE,JAMES MATHEWS,1970,,N,SIGNIFICANT,Y,Y,Y,Y,20,90,800,,,,N,0,Y,DCR,,,,,,,VA,,0,-77.96,38.98
VA05302,STEERS DAM,,2013-03-12,HATCHER RUN,CARSON,DINWIDDIE,VA,VA04,J. RANDY FORBES (R),R,PRIVATE,"H. LANDER-ALLEN, JR.",1923,,N,SIGNIFICANT,Y,Y,Y,Y,18,253,,,0.6,,N,0,Y,DCR,,,,,,,VA,,0,-77.4883,37.13
VA05702,TALIAFERRO MILL DAM,,2013-03-12,OCCUPACIA CREEK,BAIRD LANDING,ESSEX,VA,VA01,ROBERT J. WITTMAN (R),R,PRIVATE,D. C. TALIAFERRO ESTATE,1935,,N,LOW,Y,Y,Y,Y,12,181,,,,,NR,0,Y,DCR,,,,,,,VA,,0,-77.055,38.0266
VA02901,WILLIS RIVER DAM #1A,2011-11-09,2013-03-12,WILLIS RIVER,CURDSVILLE,BUCKINGHAM,VA,VA05,ROBERT HURT (R),R,LOCAL GOVERNMENT,PETER FRANCISCO SWCD,1975,,N,LOW,Y,Y,Y,Y,41.7,3183,390,3870,9.77,USDA NRCS,Y,0,Y,DCR,35040,USDA NRCS,USDA NRCS,USDA NRCS,,,VA,,0,-78.545,37.44
VA02904,WILLIS RIVER DAM #4,2011-11-15,2013-03-12,CATTAIL CREEK,CA IRA,BUCKINGHAM,VA,VA05,ROBERT HURT (R),R,LOCAL GOVERNMENT,PETER FRANCISCO SWCD,1973,,N,LOW,Y,Y,Y,Y,43.6,1102,517,3966,3.81,USDA NRCS,Y,0,Y,DCR,47350,USDA NRCS,USDA NRCS,USDA NRCS,,,VA,,0,-78.4166,37.44
VA83002,BATH COUNTY P S LOWER SEDIMENT DAM,2012-05-09,2013-02-28,LITTLE BACK CREEK,MOUNTAIN GROVE,BATH,VA,VA06,BOB GOODLATTE (R),R,PUBLIC UTILITY,VIRGINIA ELECTRIC AND POWER COMPANY,1984,,N,HIGH,N,N,N,N,27,68.87,275,0,2.7,,Y,3,N,,0,,,,FERC,FERC,FERC,,1,-79.8343,38.2157
VA16901,BARK CAMP DAM,2004-12-31,2013-03-12,LITTLE STONY CREEK,DUNGANNON,SCOTT,VA,VA09,H. MORGAN GRIFFITH (R),R,STATE,VA DEPARTMENT OF GAME & INLAND FISHERIES,1957,,Y,LOW,Y,Y,Y,Y,35,1000,650,,3.95,PERROW & BROCKENBROUGH,Y,0,Y,DCR,,,,,,,VA,,0,-82.5166,36.8666
VA11306,BEAUTIFUL RUN DAM #7,2010-04-15,2013-03-12,TR-BEAUTIFUL RUN,MADISON MILLS,MADISON,VA,VA05,ROBERT HURT (R),R,LOCAL GOVERNMENT,CULPEPER SWCD,1969,,N,LOW,Y,Y,Y,Y,26,133,600,483,0.75,USDA NRCS,Y,0,Y,DCR,26450,USDA NRCS,USDA NRCS,USDA NRCS,,,VA,,0,-78.225,38.2833
VA00329,BISHOPS DAM,,2013-03-12,TRIB. PREDDY CREEK GREENE CO.,CHARLOTTSVILLE,ALBEMARLE,VA,VA05,ROBERT HURT (R),R,PRIVATE,W. E. BISHOP,1962,,N,LOW,Y,Y,Y,Y,33,161,350,,,,NR,0,Y,DCR,,,,,,,VA,,0,-78.3873,38.1906
VA83016,BRASFIELD (APPOMATTOX),2012-07-26,2013-02-28,APPOMATTOX RIVER,PETERSBURG,"CHESTERFIELD, DINWIDDIE",VA,VA04,J. RANDY FORBES (R),R,PRIVATE,"APPOMATTOX RIVER ASSOCIATES, LP",1968,,N,HIGH,N,N,N,N,73,35354,1250,100000,1335,,Y,1,N,,,,,,FERC,FERC,FERC,,1,-77.525,37.2206
VA14701,BUFFALO CREEK DAM #1,2011-03-08,2013-03-12,FALLING CREEK,FARMVILLE,PRINCE EDWARD,VA,VA05,ROBERT HURT (R),R,LOCAL GOVERNMENT,PIEDMONT SWCD,1966,,N,LOW,Y,Y,Y,Y,39,2537,750,7020,7.09,USDA NRCS,Y,0,Y,DCR,51360,USDA NRCS,USDA NRCS,USDA NRCS,,,VA,,0,-78.5566,37.2833
DE00058,COLLINS POND DAM,2011-04-29,2013-02-04,GRAVELLY BRANCH,SEAFORD  SW,SUSSEX,DE,DE00,JOHN C. CARNEY JR. (D),D,STATE,DELDOT,1965,,N,LOW,Y,Y,Y,Y,10.98,1430,600,1713,31.48,,N,2,Y,DNREC,,,,,,,DE,,0,-75.5213,38.7084
VA12708,FERN DAM,,2013-03-12,TRIB. MILL CREEK,WEST POINT,NEW KENT,VA,VA07,ERIC CANTOR (R),R,PRIVATE,GRANT CENTERS,1966,,N,,Y,Y,Y,Y,24,218,300,,,,NR,0,Y,DCR,16240,,USDA NRCS,,,,VA,,0,-76.8966,37.51
MD00038,GILBERT RUN DAM 3 (JAMESON DAM),2012-08-01,2013-02-04,GILBERT RUN,NEWPORT,CHARLES,MD,MD05,STENY H. HOYER (D),D,LOCAL GOVERNMENT,GILBERT RUN WATERSHED ASSOC,1964,1964,N,HIGH,Y,Y,Y,Y,37,2900,950,8900,4.3,USDA NRCS,Y,1,Y,MD DAM SAFETY,113000,USDA NRCS,USDA NRCS,USDA NRCS,,USDA NRCS,MD,,0,-76.8055,38.5107
VA04716,HAWKINS DAM,,2013-03-12,TR-BROOK RUN,GERMANNA BRIDGE,CULPEPER,VA,VA07,ERIC CANTOR (R),R,PRIVATE,W. STANLEY HAWKINS,1955,,N,LOW,Y,Y,Y,Y,22,110,220,,,,NR,0,Y,DCR,,,,,,,VA,,0,-77.86,38.4066
VA07303,HAYNES DAM,,2013-03-12,CARTER CREEK,GLOUCESTER POINT,GLOUCESTER,VA,VA01,ROBERT J. WITTMAN (R),R,PRIVATE,J. W. HAYNES,1900,,N,LOW,Y,Y,Y,Y,15,275,,,,,NR,0,Y,DCR,,,,,,,VA,,0,-76.5501,37.3506
VA06130,HICKORY TREE FARM DAM,,2013-03-12,BURNT MILL RUN,ALDIE,FAUQUIER,VA,VA05,ROBERT HURT (R),R,PRIVATE,"BURNT MILL FARM, INC.",1975,,N,,Y,Y,Y,Y,30,98,350,2700,,,NR,0,Y,DCR,37200,,USDA NRCS,,,,VA,,0,-77.75,38.9366
VA00359,HOLSTRUM DAM,,2013-03-12,THOMAS CREEK,SCOTTSVILLE,ALBEMARLE,VA,VA07,ERIC CANTOR (R),R,PRIVATE,PLAIN DALING LAND TRUST,1970,,N,LOW,Y,Y,Y,Y,22,154,450,,,,NR,0,Y,DCR,,,,,,,VA,,0,-77.5338,37.8655
VA03312,JAMES DAM,,2013-03-12,TR-NORTH ANNA RIVER,HEWLETT,CAROLINE,VA,VA07,ERIC CANTOR (R),R,PRIVATE,LOUIS PEDEMONTE,1972,,N,LOW,Y,Y,Y,Y,22.5,165,500,,,,N,0,Y,DCR,,,,,,,VA,,0,-77.6401,37.9943
VA03107,LAKE SHALOM DAM,2012-03-23,2013-03-12,TR-LITTLE FALLING RIVER,BROOKNEAL,CAMPBELL,VA,VA05,ROBERT HURT (R),R,PRIVATE,PRESBYTERY OF THE PEAKS,1962,,N,LOW,Y,Y,Y,Y,36.39,150,302,2766,0.37,,Y,0,Y,DCR,21919,,USDA NRCS,,,,VA,,0,-78.9316,37.1191
VA14301,LEESVILLE,2012-04-11,2013-02-28,ROANOKE RIVER,LEESVILLE,"CAMPBELL, PITTSYLVANIA",VA,VA05,ROBERT HURT (R),R,PUBLIC UTILITY,APPALACHIAN POWER COMPANY,1963,,N,HIGH,N,N,N,N,90,94960,980,162000,1505,,Y,1,N,DCR,,,,,FERC,FERC,FERC,,1,-79.4025,37.0928
VA04915,LEON HANSEN DAM,1993-05-14,2013-03-12,HOPPER ROCK CREEK,CARTERSVILLE,CUMBERLAND,VA,VA05,ROBERT HURT (R),R,PRIVATE,LEON C. HANSON,1977,,N,LOW,Y,Y,Y,Y,35,465,330,,2.2,,Y,0,Y,DCR,,,,,,,VA,,0,-78.1516,37.74
VA00362,LIBERTY CORNER FARM DAM (3),,2013-03-12,TRIB.   ROCK CASTLE CREEK,SCOTTSVILLE,ALBEMARLE,VA,VA05,ROBERT HURT (R),R,PRIVATE,LIBETY CORNER FARM LLC,1950,,N,LOW,Y,Y,Y,Y,27,242,350,,,,NR,0,Y,DCR,,,,,,,VA,,0,-78.5716,37.803
MD00035,LITTLE DEER CREEK SITE 2A (MCKNIGHT/RUTLEDGE),2009-11-05,2013-02-04,TR-LITTLE DEER CREEK,ROCKS STATE PARK,HARFORD,MD,MD01,ANDY HARRIS (R),R,PRIVATE,H TURNEY MCKNIGHT,1962,1962,N,SIGNIFICANT,Y,Y,Y,Y,44,523,470,2890,1.5,USDA NRCS,Y,1,Y,MD DAM SAFETY,48000,USDA NRCS,USDA NRCS,USDA NRCS,,USDA NRCS,MD,,0,-76.5275,39.6404
MD00040,LITTLE DEER CREEK SITE 3,2009-11-05,2013-02-04,TR-LITTLE DEER CREEK,ROCKS STATE PARK,HARFORD,MD,MD01,ANDY HARRIS (R),R,LOCAL GOVERNMENT,USDA SOIL CONSERVATION SERVICE,1962,1962,N,SIGNIFICANT,Y,Y,Y,Y,45,582,726,3200,1.6,USDA NRCS,Y,1,Y,MD DAM SAFETY,74000,USDA NRCS,USDA NRCS,USDA NRCS,,USDA NRCS,MD,,0,-76.5302,39.6282
VA10924,LITTLE RIVER DAM #1,2011-09-12,2013-03-12,LITTLE RIVER,BUCKNER,LOUISA,VA,VA07,ERIC CANTOR (R),R,LOCAL GOVERNMENT,THOMAS JEFFERSON SWCD,1976,,N,LOW,Y,Y,Y,Y,37,1534,550,2649,3.19,USDA NRCS,Y,0,Y,DCR,38780,USDA NRCS,USDA NRCS,USDA NRCS,,,VA,,0,-77.8783,37.955
MD00160,MARYLAND EMERGENCY MANAGEMENT DAM,1993-05-13,2013-02-04,TR-NORTH BRANCH PATAPSCO RIVER,GLRN FALLS,BALTIMORE,MD,MD07,ELIJAH E. CUMMINGS (D),D,STATE,MD NATIONAL GUARD,1967,1967,N,LOW,Y,Y,Y,Y,33,108,290,151,0.4,USDA NRCS;KERSLAKE,NR,5,Y,MD DAM SAFETY,14660,,USDA NRCS,,,,MD,,0,-76.8458,39.4948
VA14509,MILL QUARTER LAKE DAM,2010-09-21,2013-03-12,NEDS CREEK,GENITO,POWHATAN,VA,VA04,J. RANDY FORBES (R),R,PRIVATE,MILL QUARTER PROPERTY OWNERS INC.,1974,,N,LOW,Y,Y,Y,Y,36,2159,840,,2.75,,Y,0,Y,DCR,,,,,,,VA,,0,-77.915,37.4933
VA15501,OTTARI SCOUT CAMP DAM #2,2006-05-17,2013-03-12,LITTLE LAUREL CREEK,SNOWVILLE,PULASKI,VA,VA09,H. MORGAN GRIFFITH (R),R,PRIVATE,"B.S.A., BLUE RIDGE MOUNTAIN COUNCIL",1961,,N,SIGNIFICANT,Y,Y,Y,Y,46,274,250,350,3.2,,Y,0,Y,DCR,178000,,USDA NRCS,,,,VA,,0,-80.5783,36.9916
VA14306,PINE DAM,,2013-03-12,TR-SANDY RIVER,DANVILLE,PITTSYLVANIA,VA,VA05,ROBERT HURT (R),R,PRIVATE,MARK DISHMAN,1955,,N,SIGNIFICANT,Y,Y,Y,Y,22,159,500,,,J. ARCH RICH,N,0,Y,DCR,,,,,,,VA,,0,-79.5433,36.6216
MD00092,POOLESVILLE PUBLIC GOLF COURSE,2010-07-27,2013-02-04,TR-POTOMAC,SENECA,MONTGOMERY,MD,MD06,JOHN K. DELANEY (D),D,LOCAL GOVERNMENT,TOWN OF POOLESVILLE,1953,1953,N,LOW,Y,Y,Y,Y,25,136,495,220,0.7,BERNARD SIEGEL,NR,5,Y,MD DAM SAFETY,,,,,,,MD,,0,-77.4179,39.1126
VA03711,ROANOKE CREEK DAM # 61A,2010-06-28,2013-03-12,HORSEPEN CREEK,RANDOLPH,CHARLOTTE,VA,VA05,ROBERT HURT (R),R,LOCAL GOVERNMENT,SOUTHSIDE SWCD,1963,,N,LOW,Y,Y,Y,Y,36.39,794,1029,2975,2.66,USDA NRCS,Y,0,Y,DCR,48870,USDA NRCS,USDA NRCS,USDA NRCS,,,VA,,0,-78.57,36.9466
VA03708,ROANOKE CREEK DAM # 62,2010-06-28,2013-03-12,HORSEPEN CREEK,RANDOLPH,CHARLOTTE,VA,VA05,ROBERT HURT (R),R,LOCAL GOVERNMENT,SOUTHSIDE SWCD,1964,,N,LOW,Y,Y,Y,Y,45,3373,806,6070,10.9,USDA NRCS,Y,0,Y,DCR,86000,USDA NRCS,USDA NRCS,USDA NRCS,,,VA,,0,-78.565,36.9416
VA04133,SPRAY DAM,,2013-03-12,TR-JAMES RIVER,COLONIAL HEIGHTS,CHESTERFIELD,VA,VA04,J. RANDY FORBES (R),R,PRIVATE,"E.I. DUPONT DE NEMOURS & CO., INC.",1929,,N,LOW,Y,Y,Y,Y,23,104,,,,,NR,0,Y,DCR,,,,,,,VA,,0,-77.4316,37.45
VA04132,SPRUANCE POLISHING DAM,2007-02-28,2013-03-12,TR-JAMES RIVER,COLONIAL HEIGHTS,CHESTERFIELD,VA,VA04,J. RANDY FORBES (R),R,PRIVATE,"E.I. DUPONT DE NEMOURS & CO., INC.",1962,,N,LOW,Y,Y,Y,Y,28,171.5,2060,,0.25,UNKNOWN,Y,0,Y,DCR,,,,,,,VA,,0,-77.425,37.4433
VA06508,THOMAS DAM,,2013-03-12,TR-WOODSONS CREEK,SCOTTSVILLE,FLUVANNA,VA,VA05,ROBERT HURT (R),R,NOT LISTED,BOBBY L. ROADCAP,1967,,N,LOW,Y,Y,Y,Y,19,106,270,,,,NR,0,Y,DCR,,,,,,,VA,,0,-78.4083,37.82
VA14316,TUSCARORA COUNTRY CLUB DAM,,2013-03-08,TR- LITTLE SANDY CREEK,DANVILLE,PITTSYLVANIA,VA,VA05,ROBERT HURT (R),R,PRIVATE,TUSCARORA COUNTRY CLUB,1977,,N,,N,N,N,N,32,89,493,74,,,NR,0,N,,17710,,USDA NRCS,,,,USDA NRCS,,0,-79.429,36.6658
VA07913,TWIN LAKES DAM #1,2011-02-27,2013-03-12,DEEP RUN,ADVANCE MILLS,GREENE,VA,VA05,ROBERT HURT (R),R,PRIVATE,TWIN LAKES OWNERS ASSOCIATION,1978,,N,LOW,Y,Y,Y,Y,32,460,500,,1.72,UNKNOWN,Y,0,Y,DCR,,,,,,,VA,,0,-78.4333,38.2566
VA01506,UPPER NORTH RIVER #76,2011-10-12,2013-03-12,UPPER NORTH RIVER,STOKESVILLE,AUGUSTA,VA,VA06,BOB GOODLATTE (R),R,LOCAL GOVERNMENT,CITY OF STAUNTON,1965,,Y,HIGH,Y,Y,Y,Y,118,10500,824,40964,27.1,USDA NRCS,Y,0,Y,DCR,718000,USDA NRCS,USDA NRCS,USDA NRCS,,,VA,,0,-79.22,38.3266
DE00095,WAPLES POND DAM,,2013-02-04,PRIMEHOOK CREEK,BROADKILL BEACH  E,SUSSEX,DE,DE00,JOHN C. CARNEY JR. (D),D,STATE,DELDOT; DNREC DFW,,,N,SIGNIFICANT,N,N,N,N,9.66,930,910,700,15.25,,NR,0,N,,,,,,,,DE,,0,-75.3087,38.824
VA02902,WILLIS RIVER DAM #1B,2011-11-09,2013-03-12,TR-WILLIS RIVER,CURDSVILLE,BUCKINGHAM,VA,VA05,ROBERT HURT (R),R,LOCAL GOVERNMENT,PETER FRANCISCO SWCD,1975,,N,LOW,Y,Y,Y,Y,44,1204,300,917,4.63,USDA NRCS,Y,0,Y,DCR,28790,USDA NRCS,USDA NRCS,USDA NRCS,,,VA,,0,-78.5333,37.4616
VA06129,WILLOW DAM,,2013-03-12,TR-BROAD RUN,HAYMARKET,FAUQUIER,VA,VA05,ROBERT HURT (R),R,PRIVATE,ANDREA B. CURRIER,1950,,N,LOW,Y,Y,Y,Y,24,71,660,,,,NR,0,Y,DCR,,,,,,,VA,,0,-77.755,38.8633
VA14101,TALBOTT,2012-02-28,2013-02-28,DAN RIVER,"MADISON, NC",PATRICK,VA,VA09,H. MORGAN GRIFFITH (R),R,LOCAL GOVERNMENT,"DANVILLE, CITY OF",1938,,N,HIGH,N,N,N,N,143.5,7540,510,8500,20,CHAS. T. MAIN,Y,1,N,DCR,,,,,FERC,FERC,FERC,,1,-80.3972,36.6781
VA14102,TOWNES,2012-02-28,2013-02-28,DAN RIVER,"MADISON, N.C.",PATRICK,VA,VA09,H. MORGAN GRIFFITH (R),R,LOCAL GOVERNMENT,"DANVILLE, CITY OF",1938,,N,HIGH,N,N,N,N,133,1400,575,15000,33,"CHAS T. MAIN, ENGINEERS",Y,1,N,DCR,,,,,FERC,FERC,FERC,,1,-80.4303,36.6856
VA18104,ADKINS DAM,,2013-03-12,JOHNCHECOHUNK CREEK,DENDRON,SURRY,VA,VA03,ROBERT C. ???BOBBY??? SCOTT (D),D,PRIVATE,E. M. ADKINS,1920,,N,LOW,Y,Y,Y,Y,14,72,,,,,NR,0,Y,DCR,,,,,,,VA,,0,-76.9933,37.1116
VA15313,ALDRED DAM,,2013-03-12,TR-CHESTNUT LICK,SUDLEY SPRINGS,PRINCE WILLIAM,VA,VA10,FRANK R. WOLF (R),R,PRIVATE,ALDRED,1973,,N,LOW,Y,Y,Y,Y,18,50,300,,,,NR,0,Y,DCR,,,,,,,VA,,0,-77.6516,38.8816
VA19511,BEAR CREEK DAM,2009-01-24,2013-03-12,TR-BEAR CREEK,RAMSEY,WISE,VA,VA09,H. MORGAN GRIFFITH (R),R,LOCAL GOVERNMENT,TOWN OF WISE,1964,,N,SIGNIFICANT,Y,Y,Y,Y,45,1155,550,,1.44,THOMPSON & LITTON,Y,0,Y,DCR,,,,,,,VA,,0,-82.5316,36.9683
VA11307,BEAUTIFUL RUN DAM #10,2010-04-15,2013-03-12,TR-BEAUTIFUL RUN,MADISON MILLS,MADISON,VA,VA05,ROBERT HURT (R),R,LOCAL GOVERNMENT,CULPEPER SWCD,1970,,N,LOW,Y,Y,Y,Y,28,89,150,388,0.55,USDA NRCS,Y,0,Y,DCR,12480,USDA NRCS,USDA NRCS,USDA NRCS,,,VA,,0,-78.225,38.2666
VA09303,BUTLERS DAM,,2013-03-12,WESTERN BRANCH,SUFFOLK,ISLE OF WIGHT,VA,VA04,J. RANDY FORBES (R),R,PRIVATE,"JOHN T. BUTLER, JR.",1966,,N,,Y,Y,Y,Y,21,240,440,539,,,NR,0,Y,DCR,10500,,USDA NRCS,,,,VA,,0,-76.655,36.875
VA03501,BYLLESBY,2012-05-16,2013-02-28,NEW RIVER,AUSTINVILLE,CARROLL,VA,VA09,H. MORGAN GRIFFITH (R),R,PUBLIC UTILITY,APPALACHIAN POWER COMPANY,1912,1993S,N,HIGH,N,N,N,N,63,2034,970,436000,1310,,Y,1,N,DCR,,,,,FERC,FERC,FERC,,1,-80.9336,36.7858
VA19102,CLEAR CREEK,2008-11-19,2013-02-27,CLEAR CREEK,BRISTOL,WASHINGTON,VA,VA09,H. MORGAN GRIFFITH (R),R,FEDERAL,TVA,1965,,N,HIGH,N,N,N,N,51,4660,670,10420,5.75,TVA,Y,5,N,DCR,163978,,TVA,TVA,TVA,TVA,TVA,,0,-82.118,36.665
VA06911,COVE DAM #2,2011-08-12,2013-03-12,TR-LAUREL RUN,GORE,FREDERICK,VA,VA10,FRANK R. WOLF (R),R,PRIVATE,ALEXANDER W. K. MCDOWELL,1974,,N,HIGH,Y,Y,Y,Y,42.6,309,500,,0.63,ALEXANDER W.K. MCDOWELL,Y,0,Y,DCR,,,,,,,VA,,0,-78.3666,39.2216
VA06905,COVE LAKE DAM #1,2011-08-12,2013-03-12,TR-LAUREL RUN,GORE,FREDERICK,VA,VA10,FRANK R. WOLF (R),R,PRIVATE,ALEXANDER W. K. MCDOWELL,1960,,N,HIGH,Y,Y,Y,Y,26.69,634,900,,0.7,R.M. BARTENSTEIN AND ASSOCIATES,Y,0,Y,DCR,,,,,,,VA,,0,-78.375,39.2183
VA03304,DELOS LAKE LOWER,2010-09-20,2013-02-27,PEUMANSEND CREEK,,CAROLINE,VA,VA01,ROBERT J. WITTMAN (R),R,FEDERAL,FORT A P HILL,1942,1982,N,LOW,Y,Y,Y,Y,15,352.32,315,769.9,5.07,ARMY,Y,5,Y,DCR,1830,DOD USA,DOD USA,DOD USA,DOD USA,DOD USA,DOD USA,,0,-77.2571,38.0931
VA00316,FOREST LAKES SUBDIV A,,2013-03-12,TR-POWELL CREEK,CHARLOTTESVILLE,ALBEMARLE,VA,VA05,ROBERT HURT (R),R,LOCAL GOVERNMENT,ALBEMARLE COUNTY,1972,,N,LOW,Y,Y,Y,Y,23.5,55,350,,,"JOHN GREENE (MOD, SEPARATED FROM ROAD)",N,0,Y,DCR,,,,,,,VA,,0,-78.4316,38.1216
VA07905,GREENE HILLS DAM,,2013-03-12,TR-CONWAY RIVER,US RT 29,GREENE,VA,VA05,ROBERT HURT (R),R,PRIVATE,"GREENE HILLS CLUB, INC.",1974,,N,LOW,Y,Y,Y,Y,21.8,64.5,200,,0.19,,NR,0,Y,DCR,,,,,,,VA,,0,-78.3966,38.275
VA11310,HABLUTZEL DAM,2012-07-05,2013-03-12,TR-ROBINSON RIVER,MADISON,MADISON,VA,VA05,ROBERT HURT (R),R,PRIVATE,THOMAS D. HALL,1966,,N,LOW,Y,Y,Y,Y,27.1,101,360,,0.9,USDA (NRCS) ASSISTANCE,Y,0,Y,DCR,,,,,,,VA,,0,-78.25,38.4783
VA17906,HIDDEN LAKE DAM,2011-11-01,2013-03-12,TR-AQUIA CREEK,QUANTICO MARINE BASE,STAFFORD,VA,VA01,ROBERT J. WITTMAN (R),R,PRIVATE,HIDDEN LAKE COMMUNITY ASSOCIATION,1952,,N,LOW,Y,Y,Y,Y,25.69,110,355,,0.67,CHARLES MITCHELL,Y,0,Y,DCR,,,,,,,VA,,0,-77.56,38.5133
VA00353,HOLLYMEAD DAM,2007-03-20,2013-03-12,,CHARLOTTESVILLE,ALBEMARLE,VA,VA05,ROBERT HURT (R),R,LOCAL GOVERNMENT,ALBEMARLE COUNTY,1974,,N,LOW,Y,Y,Y,Y,42.7,640,300,,1.5,HUFFMAN & ASSOCIATES,Y,0,Y,DCR,,,,,,,VA,,0,-78.4346,38.1166
VA03311,JILESMILLPOND DAM,,2013-03-12,TRIB. JACKS CREEK,GETHER,CAROLINE,VA,VA01,ROBERT J. WITTMAN (R),R,PRIVATE,"LOHR, STEVE AND ANN",1800,,N,SIGNIFICANT,Y,Y,Y,Y,23,286,,,,,N,0,Y,DCR,,,,,,,VA,,0,-77.2141,37.9901
DE00039,KILLEN POND DAM,,2013-02-04,MURDERKILL RIVER,FREDERICA  E,KENT,DE,DE00,JOHN C. CARNEY JR. (D),D,STATE,DELDOT; DNREC DPR,1969,,N,LOW,N,N,N,N,15.59,1005,800,1672,18.24,,NR,0,N,,,,,,,,DE,,0,-75.5295,38.9814
MD00073,LAKE ANITA LOUISE,2012-07-05,2013-02-04,TR-LINGANORE CREEK,FREDERICK JUNCTION,FREDERICK,MD,MD08,CHRIS VAN HOLLEN (D),D,PRIVATE,LAKE LINGANORE ASSOCIATION,1973,"2010,SH",N,LOW,Y,Y,Y,Y,40,90,600,109,0.2,LDE ENGINEERS (2009 RENOVATION); ROBERT B. BALTER CO (1971),NR,5,Y,MD DAM SAFETY,,,,,,,MD,,0,-77.2941,39.4149
VA03324,LAKE CAROLINE DAM,2010-04-15,2013-03-12,TOE INK SWAMP / STEVENS MILL RUN,PENOLA,CAROLINE,VA,VA01,ROBERT J. WITTMAN (R),R,PRIVATE,LAKE CAROLINE PROPERTY OWNERS ASSOC.,1968,,N,HIGH,Y,Y,Y,Y,48,8265,1425,,9.6,AMERICAN REALTY ASSOC.,Y,0,Y,DCR,,,,,,,VA,,0,-77.5133,38.0058
VA18702,LAKE JOHN DAM,2003-06-16,2013-03-12,MOLLY BOOTH RUN,NONE,WARREN,VA,VA06,BOB GOODLATTE (R),R,PRIVATE,MARK PETER LYNCH,1962,,N,LOW,Y,Y,Y,Y,28,235,335,1750,4.22,,Y,0,Y,DCR,17048,,USDA NRCS,,,,VA,,0,-78.265,38.9816
MD00072,LAKE MERLE,2012-11-01,2013-02-04,TR-LINGANORE CREEK,FREDERICK JUNCTION,FREDERICK,MD,MD08,CHRIS VAN HOLLEN (D),D,PRIVATE,LAKE LINGANORE ASSOCIATION,1971,"1998,H",N,SIGNIFICANT,Y,Y,Y,Y,43.64,303,400,1500,0.6,BALTER (ORIG); GREENHORNE & O'MARA(REPAIR),Y,3,Y,MD DAM SAFETY,,,,,,,MD,,0,-77.302,39.4226
MD00056,LAKE NIRVANA DAM,2012-09-05,2013-02-04,TR-MUDDY BRANCH,TOBYTOWN,MONTGOMERY,MD,MD06,JOHN K. DELANEY (D),D,LOCAL GOVERNMENT,CITY OF GAITHERSBURG,1967,1967,N,SIGNIFICANT,Y,Y,Y,Y,29,104,825,215,0.4,"MILLS, PETTICORD & MILLS",Y,3,Y,MD DAM SAFETY,,,,,,,MD,,0,-77.239,39.1143
VA08906,LEATHERWOOD CREEK DAM #4,2009-02-18,2013-03-12,WET BRANCH,CHATMOSS COUNTRY CLUB,HENRY,VA,VA05,ROBERT HURT (R),R,LOCAL GOVERNMENT,BLUE RIDGE SWCD,1964,0,N,LOW,Y,Y,Y,Y,42,432,330,2220,2,USDA NRCS,Y,0,Y,DCR,32740,USDA NRCS,USDA NRCS,USDA NRCS,,,VA,,0,-79.76,36.7433
MD00031,LITTLE DEER CREEK SITE 1,2009-11-05,2013-02-04,CATTAIL BRANCH,ROCKS STATE PARK,HARFORD,MD,MD01,ANDY HARRIS (R),R,LOCAL GOVERNMENT,HARFORD COUNTY DPW,1958,1958,N,SIGNIFICANT,Y,Y,Y,Y,45,210,385,930,0.7,USDA NRCS,Y,1,Y,MD DAM SAFETY,37300,USDA NRCS,USDA NRCS,USDA NRCS,,USDA NRCS,MD,,0,-76.5007,39.6328
VA01527,LOWER WALLACE DAM,,2013-03-12,POOR CREEK,RIVERMONT,AUGUSTA,VA,VA06,BOB GOODLATTE (R),R,PRIVATE,KILBRIDE INTERNATIONAL,1967,,N,LOW,Y,Y,Y,Y,23,160,450,,3.8,,Y,0,Y,DCR,,,,,,,VA,,0,-79.135,38.0083
VA04114,MARGARET DAM,2007-02-15,2013-03-12,SECOND BRANCH,COLONIAL HEIGHTS,CHESTERFIELD,VA,VA04,J. RANDY FORBES (R),R,PRIVATE,ROPER BROTHERS LUMBER CO.,1922,,N,LOW,Y,Y,Y,Y,17,410,160,,19.8,,Y,0,Y,DCR,,,,,,,VA,,0,-77.528,37.3205
VA14718,MOTTLEY DAM,2009-08-21,2013-03-12,LONG BRANCH,FARMVILLE,PRINCE EDWARD,VA,VA05,ROBERT HURT (R),R,PRIVATE,TOWN OF FARMVILLE,1968,,N,LOW,Y,Y,Y,Y,28,475,315,15700,1.64,,Y,0,Y,DCR,34568,,USDA NRCS,,,,VA,,0,-78.4783,37.3283
VA15903,MT. AIRY DAM,,2013-03-12,TRIB. CAT POINT CREEK,TAPPAHANNOCK,RICHMOND,VA,VA01,ROBERT J. WITTMAN (R),R,PRIVATE,HENRY G. TAYLOR,1800,,N,LOW,Y,Y,Y,Y,14,103,,,,,N,0,Y,DCR,,,,,,,VA,,0,-76.7985,37.9826
VA08901,PHILPOTT DAM,2008-08-05,2013-02-27,SMITH RIVER,BASSETT,HENRY,VA,VA05,ROBERT HURT (R),R,FEDERAL,CESAW,1953,,N,HIGH,N,N,N,N,220,318300,920,70000,212,COE,Y,5,N,DCR,324000,CE,CE,CE,CE,CE,CE,,0,-80.0283,36.7833
MD00138,POTOMAC RIVER DAM #5,2010-12-15,2013-02-04,POTOMAC RIVER,WILLIAMSPORT,WASHINGTON,MD,WV02,SHELLEY MOORE CAPITO (R),R,FEDERAL,US DOI NPS C&O CANAL NAT HIST PARK,1850,"1993,F",N,,Y,Y,Y,Y,20,44300,811,340000,5100,UNKNOWN,NR,5,Y,MD DAM SAFETY,,,,,,,MD,,0,-77.9233,39.605
VA03707,ROANOKE CREEK DAM # 49A,2010-06-28,2013-03-12,LITTLE HORSEPEN CREEK,RANDOLPH,CHARLOTTE,VA,VA05,ROBERT HURT (R),R,LOCAL GOVERNMENT,SOUTHSIDE SWCD,1963,,N,LOW,Y,Y,Y,Y,35,2130,502,2575,5.7,USDA NRCS,Y,0,Y,DCR,29000,USDA NRCS,USDA NRCS,USDA NRCS,,,VA,,0,-78.6,36.9133
VA03709,ROANOKE CREEK DAM # 67,2010-06-28,2013-03-12,HILLS CREEK,DRAKES BRANCH,CHARLOTTE,VA,VA05,ROBERT HURT (R),R,LOCAL GOVERNMENT,SOUTHSIDE SWCD,1960,,N,LOW,Y,Y,Y,Y,33,1470,775,4146,3.9,USDA NRCS,Y,0,Y,DCR,38000,USDA NRCS,USDA NRCS,USDA NRCS,,,VA,,0,-78.535,37.1016
VA03713,ROANOKE CREEK DAM #54,2010-06-28,2013-03-12,UPPER ROANOKE CREEK,DRAKES BRANCH,CHARLOTTE,VA,VA05,ROBERT HURT (R),R,LOCAL GOVERNMENT,SOUTHSIDE SWCD,1968,,N,LOW,Y,Y,Y,Y,38,2798,985,2050,7.4,USDA NRCS,Y,0,Y,DCR,66530,USDA NRCS,USDA NRCS,USDA NRCS,,,VA,,0,-78.565,37.1116
VA08502,SOUTH ANNA #52 B,1998-03-02,2013-03-12,MILL CREEK,CASCO,HANOVER,VA,VA07,ERIC CANTOR (R),R,LOCAL GOVERNMENT,HANOVER-CAROLINE SWCD,1973,,N,LOW,Y,Y,Y,Y,34,2019,791,3217,4.92,USDA NRCS,Y,0,Y,DCR,62980,USDA NRCS,USDA NRCS,USDA NRCS,,,VA,,0,-77.73,37.75
VA03307,TRAVIS LOWER LAKE,2010-09-20,2013-02-27,GOLDENVALE CREEK TR,,CAROLINE,VA,VA01,ROBERT J. WITTMAN (R),R,FEDERAL,FORT A P HILL,1966,,N,LOW,Y,Y,Y,Y,20,171,458,746,2.68,ARMY,Y,5,Y,DCR,,DOD USA,DOD USA,DOD USA,DOD USA,DOD USA,DOD USA,,0,-77.3243,38.1534
VA07912,TWIN LAKES DAM #2,2011-02-14,2013-03-12,QUARTER CREEK,ADVANCE MILLS,GREENE,VA,VA05,ROBERT HURT (R),R,PRIVATE,TWIN LAKES OWNERS ASSOCIATION,1976,,N,LOW,Y,Y,Y,Y,34,658,1000,,3.9,UNKNOWN,Y,0,Y,DCR,,,,,,,VA,,0,-78.4416,38.25
VA01516,UPPER WALLACE DAM,1998-01-29,2013-03-12,POOR CREEK,RIVERMONT,AUGUSTA,VA,VA06,BOB GOODLATTE (R),R,PRIVATE,KILBRIDE INTERNATIONAL,1967,,N,LOW,Y,Y,Y,Y,37,500,325,,3.7,,Y,0,Y,DCR,,,,,,,VA,,0,-79.14,38.0016
VA05104,WHITE OAK CREEK DAM,2005-06-13,2013-03-12,WHITE OAK CREEK,NORLAND,DICKENSON,VA,VA09,H. MORGAN GRIFFITH (R),R,PRIVATE,CAMP JACOB INC.,1967,,N,SIGNIFICANT,Y,Y,Y,Y,29,240,640,,1,USDA SCS - CHARLES MCDOWELL 1966,Y,0,Y,DCR,,,,,,,VA,,0,-82.55,37.1816
VA04914,ATKINS DAM,,2013-03-12,TR-DRY CREEK,FARMVILLE,CUMBERLAND,VA,VA05,ROBERT HURT (R),R,PRIVATE,LANDON G. ATKINS,1963,,N,LOW,Y,Y,Y,Y,11,81,,,,,NR,0,Y,DCR,,,,,,,VA,,0,-78.395,37.3533
VA15309,BAGLEY DAM,,2013-03-12,TR-CEDAR RUN,CAMP UPSHUR,PRINCE WILLIAM,VA,VA01,ROBERT J. WITTMAN (R),R,PRIVATE,BAGLEY,1962,,N,LOW,Y,Y,Y,Y,15,60,550,,,,NR,0,Y,DCR,,,,,,,VA,,0,-77.5783,38.64
VA11308,BEAUTIFUL RUN DAM #11,2011-03-02,2013-03-12,TR-BEAUTIFUL RUN,MADISON MILLS,MADISON,VA,VA05,ROBERT HURT (R),R,LOCAL GOVERNMENT,CULPEPER SWCD,1968,,N,LOW,Y,Y,Y,Y,30,309,286,2600,1.44,USDA NRCS,Y,0,Y,DCR,13870,USDA NRCS,USDA NRCS,USDA NRCS,,,VA,,0,-78.1916,38.3
MD00005,BRIGHTON,2012-09-07,2013-02-28,PATUXENT RIVER,LAUREL,MONTGOMERY,MD,MD03,JOHN P. SARBANES (D),D,LOCAL GOVERNMENT,WASHINGTON SUBURBAN SANITARY COMMISSION,1943,,N,HIGH,Y,Y,Y,Y,82,19560,995,83000,77,,Y,1,Y,MD DAM SAFETY,,,,,FERC,FERC,FERC,,1,-77.0055,39.1934
VA06139,BROCKETT DAM,,2013-03-12,TR-BOLLING RUN,RECTORTOWN,FAUQUIER,VA,VA05,ROBERT HURT (R),R,PRIVATE,WILLIAM R. BROCKETT,1951,,N,LOW,Y,Y,Y,Y,16,77,250,,,,NR,0,Y,DCR,,,,,,,VA,,0,-77.9,38.9
VA03347,BULLOCK'S POND,2010-09-20,2013-02-27,GOLDENVALE CREEK TR,PORT ROYAL,CAROLINE,VA,VA01,ROBERT J. WITTMAN (R),R,FEDERAL,FORT A P HILL,1978,,N,LOW,N,N,N,N,25,95,322,,0.19,ARMY,Y,5,N,,,DOD USA,DOD USA,DOD USA,DOD USA,DOD USA,DOD USA,,0,-77.34,38.15
VA00347,CHISHOLM DAM UPPER FARM,1996-07-12,2013-03-12,TR-BEAVERDAM CREEK,ADVANCE MILLS,ALBEMARLE,VA,VA05,ROBERT HURT (R),R,PRIVATE,MARY JANE CHISHOLM,1977,,N,LOW,Y,Y,Y,Y,36.79,352,250,,0.95,,Y,0,Y,DCR,,,,,,,VA,,0,-78.5166,38.2083
VA06117,CLIFTON FARM LOWER DAM,2009-03-15,2013-03-12,TR-CEDAR RUN,WARRENTON,FAUQUIER,VA,VA05,ROBERT HURT (R),R,PRIVATE,INTERNATIONAL ACADEMY FOR PREVENTIVE MEDICINE,1969,,N,,Y,Y,Y,Y,22,62.29,350,,0.48,,Y,0,Y,DCR,,,USDA NRCS,,,,VA,,0,-77.7983,38.78
MD00064,CLINTON REGIONAL PARK DAM,2012-04-05,2013-02-04,BUTLER BRANCH,PISCATAWAY,PRINCE GEORGES,MD,MD05,STENY H. HOYER (D),D,LOCAL GOVERNMENT,MNCPPC-COSCA PARK,1970,1970,N,SIGNIFICANT,Y,Y,Y,Y,28,356,515,17600,2.5,GREENHORNE AND O'MARA,Y,1,Y,MD DAM SAFETY,,,,,,,MD,,0,-76.9154,38.7349
MD00097,CONOWINGO,2012-07-10,2013-02-28,SUSQUEHANNA RIVER,PORT DEPOSIT,HARFORD,MD,MD01,ANDY HARRIS (R),R,PUBLIC UTILITY,"EXELON GENERATION COMPANY, LLC",1928,1978S,N,HIGH,Y,Y,Y,Y,94,310000,4648,1170000,27083,STONE & WEBSTER ENGINEERING CORP.,Y,1,Y,MD DAM SAFETY,,,,,FERC,FERC,FERC,,1,-76.1735,39.661
VA09505,DEER LAKE DAM,,2013-03-12,TRIB. TO YARMOUTH CREEK,CHICKAHOMINY RIVER,JAMES CITY,VA,VA01,ROBERT J. WITTMAN (R),R,PRIVATE,LENNAR CORP.,1967,,N,,Y,Y,Y,Y,35,120,385,2177,,,NR,0,Y,DCR,23876,,USDA NRCS,,,,VA,,0,-76.79,37.345
VA01701,DOUTHAT LAKE DAM,2005-02-04,2013-03-12,WILSON CREEK,CLIFTON FORGE,BATH,VA,VA06,BOB GOODLATTE (R),R,STATE,"VA DCR, DIVISION OF STATE PARKS",1936,,N,HIGH,Y,Y,Y,Y,55,1450,676,,16.4,,Y,0,Y,DCR,,,,,,,VA,,0,-79.8033,37.9033
VA17709,FAWN LAKE DAM,2010-01-06,2013-03-12,GREENFIELD CREEK,SPOTSYLVANIA,SPOTSYLVANIA,VA,VA07,ERIC CANTOR (R),R,PRIVATE,NTS VIRGINIA DEVELOPMENT CO.,1975,,N,SIGNIFICANT,Y,Y,Y,Y,63,7472,2400,,4.14,QUIBLE AND ASSOC,Y,0,Y,DCR,,,,,,,VA,,0,-77.715,38.2583
VA15509,GATEWOOD DAM,2004-12-30,2013-03-12,PEAK CREEK,PULASKI,PULASKI,VA,VA09,H. MORGAN GRIFFITH (R),R,LOCAL GOVERNMENT,TOWN OF PULASKI,1958,,N,HIGH,Y,Y,Y,Y,57,3630,408,,15.6,,Y,0,Y,DCR,,,,,,,VA,,0,-80.86,37.0383
VA00908,GRAHAM CREEK RES. DAM #1,2011-05-07,2013-03-12,GRAHAM CREEK,LYNCHBURG,AMHERST,VA,VA06,BOB GOODLATTE (R),R,LOCAL GOVERNMENT,COUNTY OF AMHERST,1967,,N,SIGNIFICANT,Y,Y,Y,Y,44.89,1630,530,8000,6.6,,Y,0,Y,DCR,12000,,USDA NRCS,,,,VA,,0,-79.1666,37.49
VA17711,GRANT LAKE DAM,2007-04-04,2013-03-12,WIDOW TAPP SPRING,MINE RUN,SPOTSYLVANIA,VA,VA07,ERIC CANTOR (R),R,PRIVATE,LAKE WILDERNESS PROP. OWNERS ASSOC.,1967,,N,SIGNIFICANT,Y,Y,Y,Y,29.39,300,600,,0.62,"MARTIN, CLIFFORD AND ASSOC.",Y,0,Y,DCR,,,,,,,VA,,0,-77.7318,38.3
VA18106,GRAY DAM,,2013-03-12,TR-BAILEY BRANCH,CLAREMONT,SURRY,VA,VA03,ROBERT C. ???BOBBY??? SCOTT (D),D,PRIVATE,FLMON GRAY,1820,,N,,Y,Y,Y,Y,20,50,303,1915,,,NR,0,Y,DCR,10000,,USDA NRCS,,,,VA,,0,-77.0133,37.1883
MD00168,HAMPSTEAD INDUSTRIAL CENTER DAM,2010-05-13,2013-02-04,TR-DEEP RUN,FINKSBURG,CARROLL,MD,MD01,ANDY HARRIS (R),R,PRIVATE,"BLACK & DECKER, US, INC.",1956,"1965,H",N,LOW,Y,Y,Y,Y,28,98,575,670,0.2,BENJAMIN E. BEAVIN CO (1965 MODIFICATIONS),NR,5,Y,MD DAM SAFETY,,,,,,,MD,,0,-76.851,39.5875
VA01922,IVY HILL DAM,2008-02-02,2013-03-12,IVY CREEK,LYNCHBURG,BEDFORD,VA,VA06,BOB GOODLATTE (R),R,PRIVATE,LIBERTY UNIVERSITY,1984,,N,HIGH,Y,Y,Y,Y,68,6989,900,,9.6,J.A. GUSTIN & ASSOC.,Y,0,Y,DCR,,,,,,,VA,,0,-79.31,37.3933
MD00069,JENNINGS RANDOLPH DAM,2008-11-06,2013-02-27,NORTH BRANCH POTOMAC RIVER,"BLOOMINGTON, MARYLAND",GARRETT,MD,MD06,JOHN K. DELANEY (D),D,FEDERAL,CENAB,1981,,N,HIGH,Y,Y,Y,Y,296,130900,2130,193000,263,CENAB,Y,5,Y,MD DAM SAFETY,10000000,CE,CE,CE,CE,CE,CE,,0,-79.0716,39.4802
VA05101,JOHN W FLANNAGAN DAM,2011-12-12,2013-02-27,POUND RIVER,ELKHORN CITY,DICKENSON,VA,VA09,H. MORGAN GRIFFITH (R),R,FEDERAL,CELRH,1963,,N,HIGH,N,N,N,N,250,145700,916,246700,221,CELRH,Y,5,N,,2385900,CE,CE,CE,CE;FERC,CE;FERC,CE,,0,-82.345,37.2333
MD00169,JOSEPH A. BANKS SWM POND,2010-05-13,2013-02-04,TR-DEEP RUN,FINKSBURG,CARROLL,MD,MD01,ANDY HARRIS (R),R,PRIVATE,JOS A BANK MFG COMPANY INC.,1975,1975,N,LOW,Y,Y,Y,Y,15,77,779,1000,0.2,"TRACY ENGINEERS, INC.",NR,5,Y,MD DAM SAFETY,,,,,,,MD,,0,-76.847,39.588
MD00194,LAKE PLACID DAM,2012-09-05,2013-02-04,TR-MUDDY BRANCH,TOBYTOWN,MONTGOMERY,MD,MD06,JOHN K. DELANEY (D),D,LOCAL GOVERNMENT,CITY OF GAITHERSBURG,1963,"2009,S",N,LOW,Y,Y,Y,Y,26,100,1040,323,0.5,JAMES H. LUDLOW ASSOC.,Y,3,Y,MD DAM SAFETY,,,,,,,MD,,0,-77.2366,39.11
VA06901,LAKE SERENE DAM,2011-10-20,2013-03-12,BABBS RUN,DEHAVEN,FREDERICK,VA,VA10,FRANK R. WOLF (R),R,PRIVATE,"LAKE SERENE, INC.",1966,,N,LOW,Y,Y,Y,Y,24,400,350,,5.05,BILL BUTLER/ HENRY BRASWITH,Y,0,Y,DCR,,,,,,,VA,,0,-78.195,39.2666
VA06903,LAKE ST. CLAIR DAM,2011-02-17,2013-03-12,BABBS RUN,DEHAVEN,FREDERICK,VA,VA10,FRANK R. WOLF (R),R,PRIVATE,LAKE ST. CLAIR PROPERTY OWNERS ASSOCIATION,1960,,N,LOW,Y,Y,Y,Y,23,467,500,,1.32,"PERRY ENGINEERING COMPANY, INC.",Y,0,Y,DCR,,,,,,,VA,,0,-78.2016,39.2766
VA01921,LAKE VISTA DAM #1,2009-03-24,2013-03-12,TRIB - IVY CREEK,LYNCHBURG,BEDFORD,VA,VA06,BOB GOODLATTE (R),R,PRIVATE,LAKE VISTA HOMEOWNERS ASSOCIATION,1986,,N,SIGNIFICANT,Y,Y,Y,Y,30,370,260,,2.83,BERKLY-HOWELL&ASSOCIATES,Y,0,Y,DCR,,,,,,,VA,,0,-79.2583,37.395
VA08904,LEATHERWOOD CR. DAM #3,2010-03-04,2013-03-12,W.F.LEATHERWOOD CREEK,US-58,HENRY,VA,VA09,H. MORGAN GRIFFITH (R),R,LOCAL GOVERNMENT,BLUE RIDGE SWCD,1964,,N,SIGNIFICANT,Y,Y,Y,Y,42,2400,407,8120,9.8,USDA NRCS,Y,0,Y,DCR,43600,USDA NRCS,USDA NRCS,USDA NRCS,,,VA,,0,-79.7716,36.74
VA08905,LEATHERWOOD CREEK DAM #2A,2010-03-04,2013-03-12,TRIB-W.F.LEATHERWOOD CREEK,US-58,HENRY,VA,VA09,H. MORGAN GRIFFITH (R),R,LOCAL GOVERNMENT,BLUE RIDGE SWCD,1964,,N,SIGNIFICANT,Y,Y,Y,Y,61,1750,400,17855,6.2,"USDA NRCS/THOMPSON AND LITTON, INC. (MOD.)",Y,0,Y,DCR,59230,USDA NRCS,USDA NRCS,USDA NRCS,,,VA,,0,-79.8083,36.7383
VA17710,LEE LAKE DAM,2003-09-08,2013-03-12,WILDERNESS RUN,MINE RUN,SPOTSYLVANIA,VA,VA07,ERIC CANTOR (R),R,PRIVATE,LAKE WILDERNESS PROP. OWNERS ASSOC.,,,N,SIGNIFICANT,Y,Y,Y,Y,19,130,450,,0.8,,Y,0,Y,DCR,,,,,,,VA,,0,-77.74,38.3033
VA04113,LEWIS ROAD DAM,,2013-03-12,TRIB. PINEY BRANCH,COLONIAL HEIGHTS,CHESTERFIELD,VA,VA04,J. RANDY FORBES (R),R,PRIVATE,JACK T. SHOOSMITH,1975,,N,LOW,Y,Y,Y,Y,14,99,,,,,NR,0,Y,DCR,,,,,,,VA,,0,-77.4881,37.342
VA17907,LITTLE LAKE ARROWHEAD DAM,2001-05-08,2013-03-12,TR-AQUIA CREEK,QUANTICO MARINE BASE,STAFFORD,VA,VA01,ROBERT J. WITTMAN (R),R,PRIVATE,LAKE ARROWHEAD CIVIC ASSOCIATION,1965,,N,LOW,Y,Y,Y,Y,22,70,392,,,,N,0,Y,DCR,,,,,,,VA,,0,-77.5483,38.4966
VA03302,LONESOME GULCH DAM,,2013-03-12,CATTLET CREEK,,CAROLINE,VA,VA01,ROBERT J. WITTMAN (R),R,FEDERAL,"DOD USA, FT. A.P. HILL",1940,,N,LOW,Y,Y,Y,Y,12,72,,,,,NR,0,Y,DCR,,,,,,,VA,,0,-77.3478,38.1016
VA16507,LOWER NORTH RIVER #82,2006-04-18,2013-03-12,DRY RIVER,RAWLEY SPRINGS,ROCKINGHAM,VA,VA06,BOB GOODLATTE (R),R,LOCAL GOVERNMENT,SHENANDOAH VALLEY SWCD,1980,,Y,HIGH,Y,Y,Y,Y,116,5780,1350,34200,18.8,USDA NRCS,Y,0,Y,DCR,1070860,USDA NRCS,USDA NRCS,USDA NRCS,,,VA,,0,-79.1216,38.5883
MD00057,MEADOW RUN DAM,2011-04-26,2013-02-04,MEADOW RUN,"SALISBURY, PA",GARRETT,MD,MD06,JOHN K. DELANEY (D),D,PRIVATE,JUDY ROBINETTE,1969,1969,N,HIGH,Y,Y,Y,Y,25,750,1100,800,1.6,EARTHWORK INC& JOHN DAVIES,Y,1,Y,MD DAM SAFETY,,,,,,,MD,,0,-79.1044,39.684
VA83101,NORTH ANNA CAT I SERVICE WATER DIKE,2012-03-27,2013-02-27,NONE,MINERAL,LOUISA,VA,VA07,ERIC CANTOR (R),R,PUBLIC UTILITY,VIRGINIA POWER COMPANY,1974,,N,LOW,N,N,N,N,37,177,3000,,0.14,,NR,2,N,,,,,,US NRC,US NRC,US NRC,,0,-77.7869,38.0633
DE00050,NOXONTOWN POND DAM,,2013-02-04,APPOQUINIMINK RIVER,ODESSA,NEW CASTLE,DE,DE00,JOHN C. CARNEY JR. (D),D,STATE,DELDOT,1966,,N,LOW,N,N,N,N,14,2610,960,1840,9.78,,NR,0,N,,,,,,,,DE,,0,-75.683,39.4344
VA00320,RED HILL ORCHARD DAM,,2013-03-12,TRIB. HARDWARE RIVER NORTH FORK,CARTERS BRIDGE,ALBEMARLE,VA,VA05,ROBERT HURT (R),R,PRIVATE,R & H PARTNERS LLC,1960,,N,,Y,Y,Y,Y,29,160,200,,,,NR,0,Y,DCR,,,USDA NRCS,,,,VA,,0,-78.6056,37.9488
VA07508,RESERVOIR #1,2010-04-12,2013-03-12,BROAD BRANCH,TUCKAHOO VILLAGE,GOOCHLAND,VA,VA07,ERIC CANTOR (R),R,PRIVATE,"HERMITAGE COUNTRY CLUB, INC.",1961,,N,LOW,Y,Y,Y,Y,27.5,360,485,5741,0.75,,Y,0,Y,DCR,41222,,USDA NRCS,,,,VA,,0,-77.7066,37.645
VA01919,SAUNDERS POND DAM,,2013-03-12,MATTOX CREEK,STONE MOUNTIAN,BEDFORD,VA,VA05,ROBERT HURT (R),R,NOT LISTED,C. D.SAUNDERS,1952,,N,LOW,Y,Y,Y,Y,18,53,,,,,NR,0,Y,DCR,,,,,,,VA,,0,-79.62,37.1433
MD00087,SENECA STATE PARK DAM,2012-09-05,2013-02-04,LONG DRAUGHT BRANCH,DAWSONVILLE,MONTGOMERY,MD,MD06,JOHN K. DELANEY (D),D,STATE,"MD DNR-PUBLIC LANDS, ENGINEERING & CONSTR-SOUTHERN",1975,1975,N,SIGNIFICANT,Y,Y,Y,Y,64,2792,580,2727,2.9,TRANSVIRON INC: JOHN COTTON,Y,1,Y,MD DAM SAFETY,,,,,,,MD,,0,-77.2579,39.1439
VA01509,SOUTH RIVER DAM #6,2011-10-11,2013-03-12,COLD SPRINGS RUN,STUARTS DRAFT,AUGUSTA,VA,VA06,BOB GOODLATTE (R),R,LOCAL GOVERNMENT,HEADWATERS SWCD,1959,,N,HIGH,Y,Y,Y,Y,58,1283,910,9825,4.1,USDA NRCS,Y,0,Y,DCR,148000,USDA NRCS,USDA NRCS,USDA NRCS,,,VA,,0,-79.1233,37.9916
VA00361,STILLFRIEDS DAM,,2013-03-12,TRIB.  MILLER CREEK,SCOTTSVILLE,ALBEMARLE,VA,VA05,ROBERT HURT (R),R,PRIVATE,TWO TIMES FIVE LLC,1960,,N,,Y,Y,Y,Y,37,229,410,1300,,,NR,0,Y,DCR,78000,,USDA NRCS,,,,VA,,0,-78.515,37.845
VA15505,THORNHILL DAM,,2013-03-12,TR-BENTLEYS BRANCH,PULASKI,PULASKI,VA,VA09,H. MORGAN GRIFFITH (R),R,NOT LISTED,BERNARD R. SIMMONS,1952,,Y,,N,N,N,N,25,80,505,400,,,NR,0,N,DCR,30000,,USDA NRCS,,,,VA,,0,-80.8216,37.11
VA03348,TRAVIS LAKE UPPER,2010-09-20,2013-02-27,GOLDENVALE CREEK TR,,CAROLINE,VA,VA01,ROBERT J. WITTMAN (R),R,FEDERAL,FORT A P HILL,1940,,N,LOW,N,N,N,N,10,184.28,282,1896.4,2.45,ARMY,Y,5,N,,,DOD USA,DOD USA,DOD USA,DOD USA,DOD USA,DOD USA,,0,-77.1616,38.1483
VA07914,TWIN LAKES DAM #3,2011-02-22,2013-03-12,QUARTER CREEK,ADVANCE MILLS,GREENE,VA,VA05,ROBERT HURT (R),R,PRIVATE,TWIN LAKES HOME OWNERS ASSOCIATION,1976,,N,LOW,Y,Y,Y,Y,29,162,500,,4.4,UNKNOWN,Y,0,Y,DCR,,,,,,,VA,,0,-78.4416,38.2416
VA00913,WENNINGS DAM,,2013-03-12,TR-PARTRIDGE CREEK,STAPLETON,AMHERST,VA,VA06,BOB GOODLATTE (R),R,PRIVATE,JAMES O. WENNING,1960,,N,LOW,N,N,N,N,40,80,,,0.07,,NR,0,N,DCR,,,,,,,VA,,0,-79.0483,37.4816
VA03306,WHITES LAKE,2010-09-20,2013-02-27,MARICOSSIC CREEK,,CAROLINE,VA,VA01,ROBERT J. WITTMAN (R),R,FEDERAL,FORT A P HILL,1940,1974,N,LOW,Y,Y,Y,Y,17,1056.09,300,598.6,11.15,VDOT,Y,5,Y,DCR,,DOD USA,DOD USA,DOD USA,DOD USA,DOD USA,DOD USA,,0,-77.0183,38.04
VA10906,WOOLFOLKS DAM NO. 1,,2013-03-12,TRIB. BEAVER CREEK,ST.RT.605,LOUISA,VA,VA07,ERIC CANTOR (R),R,NOT LISTED,GOODWIN,1975,,N,,Y,Y,Y,Y,28,98,475,332,,,NR,0,Y,DCR,18000,,USDA NRCS,,,,VA,,0,-77.9945,37.994
VA05902,BURKE LAKE DAM,2011-03-14,2013-03-12,SOUTH RUN,FORT BELVOIR,FAIRFAX,VA,VA10,FRANK R. WOLF (R),R,STATE,VA DEPARTMENT OF GAME & INLAND FISHERIES,1960,,N,HIGH,Y,Y,Y,Y,44,3190,1150,,3.14,WARREN C. PERROW,Y,0,Y,DCR,,,,,,,VA,,0,-77.2966,38.755
VA03314,CAMPBELLS DAM,,2013-03-12,TR-MATTAPONI RIVER,REED MILL,CAROLINE,VA,VA01,ROBERT J. WITTMAN (R),R,PRIVATE,CLARENCE CAMPBELL JR.,1968,,N,,Y,Y,Y,Y,20,87,591,6100,,,NR,0,Y,DCR,14220,,USDA NRCS,,,,VA,,0,-77.3416,37.9316
VA05908,CHANTILLY COUNTRY CLUB DAM,,2013-03-12,FLATLICK CREEK,MANASSASS,FAIRFAX,VA,VA10,FRANK R. WOLF (R),R,PRIVATE,CHANTILLY INC,1960,,N,LOW,Y,Y,Y,Y,15,427.55,500,,,,N,0,Y,DCR,,,,,,,VA,,0,-77.4721,38.8633
VA04905,CLEMENTS DAM,2010-09-08,2013-03-12,TEAR WALLET CREEK,STONY POINT MILLS,CUMBERLAND,VA,VA05,ROBERT HURT (R),R,PRIVATE,BRUCE & AMY DOMINICK,1959,,N,LOW,Y,Y,Y,Y,34.5,918,500,,1.2,UNKNOWN,Y,0,Y,DCR,,,,,,,VA,,0,-78.26,37.4733
VA05308,COLEMAN DAM,2011-04-27,2013-03-12,WHITE OAK CREEK,DINWIDDIE,DINWIDDIE,VA,VA04,J. RANDY FORBES (R),R,PRIVATE,HOA,1830,,N,SIGNIFICANT,Y,Y,Y,Y,12,636,240,,0.34,,Y,0,Y,DCR,,,,,,,VA,,0,-77.695,37.11
VA04903,COLLINS UPPER DAM,2004-10-19,2013-03-12,TR-TEAR WALLET CREEK,STONY POINT MILLS,CUMBERLAND,VA,VA05,ROBERT HURT (R),R,PRIVATE,HAROLD W. COLLINS,1965,,N,LOW,Y,Y,Y,Y,27.89,220,285,,0.8,SCS,Y,0,Y,DCR,,,,,,,VA,,0,-78.26,37.4783
VA00323,COVE CREEK DAM,,2013-03-12,TRIB. COVE CREEK,FABER,ALBEMARLE,VA,VA05,ROBERT HURT (R),R,PRIVATE,STOLLZ FAMILY LIMITED PARTNERSHIP,1956,,N,,Y,Y,Y,Y,32,110,600,,,,N,0,Y,DCR,,,USDA NRCS,,,,VA,,0,-78.7178,37.8903
MD00136,DANIELS DAM,2008-02-07,2013-02-04,PATAPSCO RIVER,ELLICOTT CITY,BALTIMORE,MD,MD07,ELIJAH E. CUMMINGS (D),D,STATE,"MD DNR-PUBLIC LANDS, ENGINEERING & CONSTR-CENTRAL",1833,"1993,SO (FISH LADDER)",N,LOW,Y,Y,Y,Y,27,1500,450,14500,265.8,"STONE&WEBSTER(FISH LADDER), AMBURSEN ENGINEERING (ORIG DAM)",NR,5,Y,MD DAM SAFETY,,,,,,,MD,,0,-76.8161,39.3147
VA14314,DEER WOOD SPRINGS DAM,1995-03-10,2013-03-12,TR-FALL CREEK,DANVILLE,PITTSYLVANIA,VA,VA05,ROBERT HURT (R),R,PRIVATE,DEERWOOD SPRING POA,1974,,N,LOW,Y,Y,Y,Y,28,138,634,,,,NR,0,Y,DCR,,,,,,,VA,,0,-79.3833,36.715
MD00184,EASTON PRIMARY SEWAGE LAGOON,2012-07-12,2013-02-04,OFFSTREAM-TR-CHOPTANK RIVER,LLOYDS LANDING,TALBOT,MD,MD01,ANDY HARRIS (R),R,LOCAL GOVERNMENT,TOWN OF EASTON,1962,1962,N,LOW,Y,Y,Y,Y,15,388,4800,20,0.01,EASTON UTILITIES COM.,NR,5,Y,MD DAM SAFETY,,,,,,,MD,,0,-76.0183,38.7466
MD00185,EASTON SECONDARY SEWAGE LAGOON,2012-07-12,2013-02-04,OFFSTREAM-TR-CHOPTANK RIVER,LLOYDS LANDING,TALBOT,MD,MD01,ANDY HARRIS (R),R,LOCAL GOVERNMENT,TOWN OF EASTON,1962,1962,N,LOW,Y,Y,Y,Y,12,135,3000,20,0.01,EASTON UTILITIES COM.,NR,5,Y,MD DAM SAFETY,,,,,,,MD,,0,-76.0166,38.7483
VA00365,EDGEWORTH FARM SOUTH DAM,,2013-03-12,TRIB. HAPPY CREEK,GORDONSVILLE,ALBEMARLE,VA,VA05,ROBERT HURT (R),R,PRIVATE,"WILSON, FLORENCE",1947,,N,LOW,Y,Y,Y,Y,19,309,410,,,,NR,0,Y,DCR,,,,,,,VA,,0,-78.2583,38.105
VA09301,EDWARDS DAM,,2013-03-12,TR-CHAMPION SWAMP,SMITHFIELD,ISLE OF WIGHT,VA,VA04,J. RANDY FORBES (R),R,PRIVATE,F. L. EDWARDS,1963,,N,,Y,Y,Y,Y,23,143,350,1332,,,NR,0,Y,DCR,1000,,USDA NRCS,,,,VA,,0,-76.6333,36.925
MD00177,ELGIN FARM POND,2011-07-18,2013-02-04,TR-MORGAN CREEK,CHESTER ESTATES,KENT,MD,MD01,ANDY HARRIS (R),R,PRIVATE,"JAMES ELGIN, JR.",1965,1965,N,LOW,Y,Y,Y,Y,14,85,230,81,0.8,USDA NRCS;JOHN COTTON,NR,5,Y,MD DAM SAFETY,5900,,USDA NRCS,,,,MD,,0,-76.08,39.27
VA09703,FLEETS MILLPOND DAM,,2013-03-12,FLEETS CREEK,HENLEYS FORK,KING AND QUEEN,VA,VA01,ROBERT J. WITTMAN (R),R,PRIVATE,N. D. STOLFI,1800,,N,LOW,Y,Y,Y,Y,13,129,,,,,NR,0,Y,DCR,,,,,,,VA,,0,-77.01,37.8033
DE00024,FLEETWOOD POND DAM,2012-04-16,2013-02-04,TYNDALL BRANCH,SEAFORD   W,SUSSEX,DE,DE00,JOHN C. CARNEY JR. (D),D,STATE,DELDOT,1968,,N,SIGNIFICANT,Y,Y,Y,Y,10.65,206,110,403,21.43,,N,1,Y,DNREC,,,,,,,DE,,0,-75.5093,38.6443
MD00009,FROSTBURG RESERVOIR,2011-11-07,2013-02-04,BIG PINEY RUN,"ENGLES MILL, PA",GARRETT,MD,MD06,JOHN K. DELANEY (D),D,LOCAL GOVERNMENT,CITY OF FROSTBURG,1990,"1990,HS",N,HIGH,Y,Y,Y,Y,46,3276,1275,22188,11.9,"WHITMAN, REQUARDT & ASSOC.",Y,1,Y,MD DAM SAFETY,,,,,,,MD,,0,-79.0109,39.7041
MD00060,GILBERT RUN DAM 2 (WHEATLEY),2012-08-01,2013-02-04,WHEATLEY RUN,NEWPORT,CHARLES,MD,MD05,STENY H. HOYER (D),D,LOCAL GOVERNMENT,CHARLES CO PARKS AND FACILITIES,1968,"1992,F (TOE DRAINS)",N,HIGH,Y,Y,Y,Y,39,1850,1000,3190,2.7,USDA NRCS,Y,1,Y,MD DAM SAFETY,130000,USDA NRCS,USDA NRCS,USDA NRCS,,USDA NRCS,MD,,0,-76.8543,38.4861
VA19104,HIDDEN VALLEY LAKE DAM,2004-12-31,2013-03-12,BRUMLEY CREEK,DUNCANVILLE,WASHINGTON,VA,VA09,H. MORGAN GRIFFITH (R),R,STATE,VA DEPARTMENT OF GAME & INLAND FISHERIES,,,Y,SIGNIFICANT,Y,Y,Y,Y,32.29,1975,560,,1.67,UNKNOWN,Y,0,Y,DCR,,,,,,,VA,,0,-82.0733,36.85
VA11908,HILLIARDS MILL POND DAM,,2013-03-12,NICKLEBERRY SWAMP,URBANNA,MIDDLESEX,VA,VA01,ROBERT J. WITTMAN (R),R,PRIVATE,HILLIARD MILL POND ASSOCIATION H.O.A.,1930,,N,LOW,Y,Y,Y,Y,10.4,558,300,,5.9,(BAY DESIGN GROUP),Y,0,Y,DCR,,,,,,,VA,,0,-76.64,37.665
VA17908,LAKE ARROWHEAD DAM,2001-05-08,2013-03-12,TR-AQUIA CREEK,QUANTICO MARINE BASE,STAFFORD,VA,VA01,ROBERT J. WITTMAN (R),R,PRIVATE,LAKE ARROWHEAD CIVIC ASSOCIATION,1959,,N,SIGNIFICANT,Y,Y,Y,Y,26,347,225,,0.7,H. RYLAN HEFLIN,Y,0,Y,DCR,,,,,,,VA,,0,-77.545,38.5
VA08511,LAKE CLAYBANK DAM,,2013-03-12,TRIB.  MILL CREEK,ROUTE 54,HANOVER,VA,VA07,ERIC CANTOR (R),R,PRIVATE,CLAYBANK HOME OWNERS ASSOC.,1966,,N,,Y,Y,Y,Y,29,434,700,507,,,NR,0,Y,DCR,26800,,USDA NRCS,,,,VA,,0,-77.5961,37.8058
MD00075,LAKE MARIAN,2012-11-01,2013-02-04,TR-LINGANORE CREEK,FREDERICK JUNCTION,FREDERICK,MD,MD08,CHRIS VAN HOLLEN (D),D,PRIVATE,LAKE LINGANORE ASSOCIATION,1973,2003,N,LOW,Y,Y,Y,Y,50,113,300,150,1.2,ROBERT B. BALTER CO.,NR,5,Y,MD DAM SAFETY,,,,,,,MD,,0,-77.3267,39.4171
VA07704,LAUREL CREEK DAM,,2013-03-12,LAUREL CREEK,FOX CREEK,GRAYSON,VA,VA09,H. MORGAN GRIFFITH (R),R,NOT LISTED,A. C. RICHARDSON,1974,,N,SIGNIFICANT,Y,Y,Y,Y,24,124,235,165,,,N,0,Y,DCR,4500,,USDA NRCS,,,,VA,,0,-81.3666,36.7283
VA08902,LEATHERWOOD CREEK DAM #5,2010-03-04,2013-03-12,LEATHERWOOD CREEK,CHATMOSS COUNTRY CLUB,HENRY,VA,VA05,ROBERT HURT (R),R,LOCAL GOVERNMENT,BLUE RIDGE SWCD,1963,,N,SIGNIFICANT,Y,Y,Y,Y,59,2997,510,6305,11.5,USDA NRCS,Y,0,Y,DCR,74580,USDA NRCS,USDA NRCS,USDA NRCS,,,VA,,0,-79.7233,36.7316
MD00062,LITTLE TONOLOWAY DAM,2010-04-07,2013-02-04,LITTLE TONOLOWAY CREEK,HANCOCK,WASHINGTON,MD,MD06,JOHN K. DELANEY (D),D,PRIVATE,TONOLWAY ROD AND GUN CLUB,1953,1953,N,LOW,Y,Y,Y,Y,17,66,423,810,2.8,PITTSBURG SAND & GLASS,NR,5,Y,MD DAM SAFETY,,,,,,,MD,,0,-78.2553,39.6844
VA00367,LLOYD DAM,,2013-03-12,TR-MECHUNK CREEK,UNION MILLS,ALBEMARLE,VA,VA05,ROBERT HURT (R),R,PRIVATE,THOMAS BOLENDER,1970,,N,LOW,Y,Y,Y,Y,28,93,410,,,,NR,0,Y,DCR,,,,,,,VA,,0,-78.3283,37.995
VA16102,LOCH HAVEN LAKE DAM,2005-10-15,2013-03-12,TR-DEER BRANCH CREEK,ROANOKE,ROANOKE CO,VA,VA09,H. MORGAN GRIFFITH (R),R,PRIVATE,BANE INTERNATIONAL COMPANY LLC,1930,,N,SIGNIFICANT,Y,Y,Y,Y,26,108,80,,1.31,UNKNOWN,Y,0,Y,DCR,,,,,,,VA,,0,-80.0016,37.345
VA16504,LOWER NORTH RIVER #22B,2007-08-14,2013-03-12,DRY RUN,RAWLEY SPRINGS,ROCKINGHAM,VA,VA06,BOB GOODLATTE (R),R,LOCAL GOVERNMENT,SHENANDOAH VALLEY SWCD,1970,,Y,HIGH,Y,Y,Y,Y,79.59,795,744,4060,4,USDA NRCS,Y,0,Y,DCR,315540,USDA NRCS,USDA NRCS,USDA NRCS,,,VA,,0,-79.09,38.5616
VA16502,LOWER NORTH RIVER #78,2009-05-06,2013-03-12,BRIERY BRANCH,BRIERY BRANCH,ROCKINGHAM,VA,VA06,BOB GOODLATTE (R),R,LOCAL GOVERNMENT,SHENANDOAH VALLEY SWCD,1968,,N,HIGH,Y,Y,Y,Y,91,2550,762,22330,9.5,USDA NRCS,Y,0,Y,DCR,477070,USDA NRCS,USDA NRCS,USDA NRCS,,,VA,,0,-79.16,38.45
VA16503,LOWER NORTH RIVER #83,2007-04-17,2013-03-12,HONE QUARRY RUN,BRIERY BRANCH,ROCKINGHAM,VA,VA06,BOB GOODLATTE (R),R,LOCAL GOVERNMENT,SHENANDOAH VALLEY SWCD,1968,,N,HIGH,Y,Y,Y,Y,93,1680,780,18450,7.9,R. STUART ROYER AND ASSOCIATES,Y,0,Y,DCR,479120,USDA NRCS,USDA NRCS,USDA NRCS,,,VA,,0,-79.1433,38.47
VA17901,LUNGA DAM,2009-07-29,2013-02-27,BEAVERDAM RUN,AQUIA,STAFFORD,VA,VA01,ROBERT J. WITTMAN (R),R,FEDERAL,DOD USMC,1957,,N,HIGH,Y,Y,Y,Y,58.5,12800,1300,5850,10.8,,Y,3,Y,DCR,93000,DOD USN,DOD USN,DOD USN,DOD USN,DOD USN,DOD USN,,0,-77.4612,38.5236
DE00029,MASSEYS MILL POND DAM,,2013-02-04,LEIPSIC RIVER,LEIPSIC,KENT,DE,DE00,JOHN C. CARNEY JR. (D),D,STATE,DELDOT; DNREC DFW,1933,,N,LOW,N,N,N,N,12.27,490,380,325,11.83,,NR,0,N,,,,,,,,DE,,0,-75.6174,39.2394
VA10501,MIDDLETON DAM,,2013-03-12,STONE CREEK,STONE CREEK,LEE,VA,VA09,H. MORGAN GRIFFITH (R),R,PRIVATE,STEVE MIDDLETON,1965,,N,SIGNIFICANT,Y,Y,Y,Y,22,72,,,0.75,,N,0,Y,DCR,,,,,,,VA,,0,-83.1166,36.7583
VA15704,MOSBY DAM,,2013-03-12,TR-RAPPAHANNOCK RIVER,US ROUTE 211,RAPPAHANNOCK,VA,VA05,ROBERT HURT (R),R,PRIVATE,JAMES E. WILLIAMS,1960,,N,LOW,Y,Y,Y,Y,22,75,360,,,,NR,0,Y,DCR,,,,,,,VA,,0,-78.0033,38.7166
VA05912,NORTH TWIN LAKE DAM,2011-02-15,2013-03-12,MOORE CREEK,CLIFTON,FAIRFAX,VA,VA10,FRANK R. WOLF (R),R,LOCAL GOVERNMENT,FAIRFAX COUNTY PARK AUTHORITY,1950,,N,LOW,Y,Y,Y,Y,19,76,340,,1.03,,N,0,Y,DCR,,,,,,,VA,,0,-77.4033,38.82
VA18319,PARKER NO.-1 DAM,,2013-03-12,TR-SEACOCK SWAMP,IVOR,SUSSEX,VA,VA04,J. RANDY FORBES (R),R,PRIVATE,O. E. PARKER,1950,,N,LOW,Y,Y,Y,Y,15,69,,,,,NR,0,Y,DCR,,,,,,,VA,,0,-76.9883,36.96
VA18320,PARKER NO.-2 DAM,,2013-03-12,TR-SEACOCK SWAMP,IVOR,SUSSEX,VA,VA04,J. RANDY FORBES (R),R,PRIVATE,O. E. PARKER,1970,,N,LOW,Y,Y,Y,Y,15,52,,,,,NR,0,Y,DCR,,,,,,,VA,,0,-76.9883,36.9566
VA00351,PEACOCK HILL DAM,2009-08-26,2013-03-12,TRIB. BROAD AXE CREEK,MECHUMS RIVER,ALBEMARLE,VA,VA05,ROBERT HURT (R),R,PRIVATE,PEACOCK HILL COMMUNITY ASSOCIATION,1975,,N,LOW,Y,Y,Y,Y,38.39,98.79,335,,0.13,JOHN MCNAIR & ASSOC.,Y,0,Y,DCR,,,,,,,VA,,0,-78.6416,38.0366
VA05923,POHICK CREEK DAM #2,2010-10-15,2013-03-12,TR-SIDEBURN BRANCH,FAIRFAX,FAIRFAX,VA,VA11,GERALD E. CONNOLLY (D),D,LOCAL GOVERNMENT,FAIRFAX COUNTY BOARD OF SUPERVISORS,1978,,N,HIGH,Y,Y,Y,Y,44,560,900,4244,0.86,USDA NRCS,Y,0,Y,DCR,62890,USDA NRCS,USDA NRCS,USDA NRCS,,,VA,,0,-77.3066,38.7966
MD00101,PRIESTFORD HILLS,2009-09-03,2013-02-04,TR-TOBACCO RUN,NOBLE MILL,HARFORD,MD,MD01,ANDY HARRIS (R),R,PRIVATE,PRIESTFORD HILLS COMM ASSOC,1974,"1995,S",N,LOW,Y,Y,Y,Y,24,88,700,170,0.4,"GW STEPHENS (MODIF), FREDRICK WARD ASSOCIATES (ORIG)",NR,5,Y,MD DAM SAFETY,,,,,,,MD,,0,-76.2629,39.5705
VA03705,ROANOKE CREEK DAM #5B,2010-06-28,2013-03-12,WEST BR.OF WARDS FORK,CULLEN,CHARLOTTE,VA,VA05,ROBERT HURT (R),R,LOCAL GOVERNMENT,SOUTHSIDE SWCD,1962,,N,LOW,Y,Y,Y,Y,34,1379,549,3470,4.8,USDA NRCS,Y,0,Y,DCR,44000,USDA NRCS,USDA NRCS,USDA NRCS,,,VA,,0,-78.6666,37.145
MD00014,SAVAGE RIVER DAM,2012-10-11,2013-02-04,SAVAGE RIVER,LUKE,GARRETT,MD,MD06,JOHN K. DELANEY (D),D,STATE,UPPER POTOMAC RIVER COMMISSION,1952,"2010,S (REPLACEMENT OF 4 GATES)",N,HIGH,Y,Y,Y,Y,184,31800,1050,97200,105,HAZEN AND SAWYER (2010);US ARMY CORPS OF ENGINEERS (ORIG DESIGN),Y,1,Y,MD DAM SAFETY,,,,,,,MD,,0,-79.1344,39.5075
DE00051,SILVER LAKE DAM - MIDDLETOWN,2012-06-25,2013-02-04,DEEP CREEK,ODESSA,NEW CASTLE,DE,DE00,JOHN C. CARNEY JR. (D),D,STATE,DELDOT,1945,,N,LOW,Y,Y,Y,Y,18,591,570,2100,5.89,,N,1,Y,DNREC,,,,,,,DE,,0,-75.6933,39.438
MD00048,SMITHVILLE DAM,2009-04-09,2013-02-04,TR-MARSHYHOPE-SMITHVILLE DITCH,FEDERALSBURG,CAROLINE,MD,MD01,ANDY HARRIS (R),R,STATE,"MD DNR-PUBLIC LANDS, ENGINEERING & CONSTR-EASTERN",1980,1980,N,LOW,Y,Y,Y,Y,14,336,597,2282,9.9,MD STATE HIGHWAY ADMIN.,NR,5,Y,MD DAM SAFETY,,,,,,,MD,,0,-75.7297,38.7736
VA01508,SOUTH RIVER DAM #23,2011-10-12,2013-03-12,ROBINSON HOLLOW,WAYNESBORO,AUGUSTA,VA,VA06,BOB GOODLATTE (R),R,LOCAL GOVERNMENT,HEADWATERS SWCD,1956,,Y,HIGH,Y,Y,Y,Y,54,919,434,,2.4,USDA NRCS,Y,0,Y,DCR,70000,USDA NRCS,USDA NRCS,USDA NRCS,,,VA,,0,-78.92,38.005
VA01513,SOUTH RIVER DAM #24,2011-10-11,2013-03-12,TR-BACK CREEK,WAYNESBORO,AUGUSTA,VA,VA06,BOB GOODLATTE (R),R,LOCAL GOVERNMENT,HEADWATERS SWCD,1954,0,N,SIGNIFICANT,Y,Y,Y,Y,35,330,490,1797,1.13,USDA NRCS,Y,0,Y,DCR,30500,USDA NRCS,USDA NRCS,USDA NRCS,,,VA,,0,-78.9383,37.9983
VA01501,SOUTH RIVER DAM #26,2011-10-12,2013-03-12,INCH BRANCH OF BACK CREEK,WAYNESBORO,AUGUSTA,VA,VA06,BOB GOODLATTE (R),R,LOCAL GOVERNMENT,HEADWATERS SWCD,1956,,N,HIGH,Y,Y,Y,Y,57,868,766,,2.4,USDA NRCS,Y,0,Y,DCR,135000,USDA NRCS,USDA NRCS,USDA NRCS,,,VA,,0,-78.9516,38.015
VA05911,SOUTH TWIN LAKE DAM,2011-02-15,2013-03-12,MOORE CREEK,CLIFTON,FAIRFAX,VA,VA10,FRANK R. WOLF (R),R,LOCAL GOVERNMENT,FAIRFAX COUNTY PARK AUTHORITY,1967,,N,LOW,Y,Y,Y,Y,14,118,520,,,,Y,0,Y,DCR,,,,,,,VA,,0,-77.405,38.8183
VA18323,SPIERS DAM,,2013-03-12,SAPPONY CREEK,STONY CREEK,SUSSEX,VA,VA04,J. RANDY FORBES (R),R,PRIVATE,S. H. WINFIELD,1940,,N,LOW,Y,Y,Y,Y,12,52,,,,,NR,0,Y,DCR,,,,,,,VA,,0,-77.49,36.93
VA03507,STEWARTS CREEK - LOVILLS CREEK DAM #9,2004-08-11,2013-03-12,LOVILLS CREEK,"MT.AIRY, NC",CARROLL,VA,VA09,H. MORGAN GRIFFITH (R),R,LOCAL GOVERNMENT,CARROLL COUNTY,1990,,N,HIGH,Y,Y,Y,Y,91,7415,745,51003,20.92,USDA NRCS,Y,0,Y,DCR,250760,USDA NRCS,USDA NRCS,USDA NRCS,,,VA,,0,-80.6416,36.5783
VA00303,SUGAR HOLLOW DAM,2011-11-30,2013-03-12,MOORMANS RIVER,WHITEHALL,ALBEMARLE,VA,VA05,ROBERT HURT (R),R,PUBLIC UTILITY,RIVANNA WATER AND SEWER AUTHORITY,1950,,N,HIGH,Y,Y,Y,Y,77,1667,480,,17.2,EDW. SAUNDERS,Y,0,Y,DCR,,,,,,,VA,,0,-78.7383,38.1366
DE00017,TRAP POND DAM,2012-04-16,2013-02-04,HITCH POND BRANCH,LAUREL  NW,SUSSEX,DE,DE00,JOHN C. CARNEY JR. (D),D,STATE,DELDOT; DNREC DPR,1938,,N,LOW,Y,Y,Y,Y,14.27,4343,1040,3100,15.91,,N,1,Y,DNREC,,,,,,,DE,,0,-75.4824,38.5278
VA08914,WILLIAM FRANCK DAM,,2013-03-12,FALL CREEK,SMITH RIVER,HENRY,VA,VA05,ROBERT HURT (R),R,NOT LISTED,WILLIAM F. FRANCK III,1968,,N,,Y,Y,Y,Y,20,73,375,,,,NR,0,Y,DCR,6020,,USDA NRCS,,,,VA,,0,-79.7383,36.645
VA11701,JOHN H KERR DAM,2008-06-25,2013-02-27,ROANOKE RIVER,ROANOKE RAPIDS,MECKLENBURG,VA,VA05,ROBERT HURT (R),R,FEDERAL,CESAW,1953,,N,HIGH,N,N,N,N,144,3363500,2785,800000,7800,CE,Y,5,N,DCR,1338702,CE,CE,CE,CE,CE,CE,,4,-78.2966,36.5966
VA11701,JOHN H. KERR SADDLE DIKE NO. 1,2008-06-24,2013-02-27,ROANOKE RIVER,ROANOKE RAPIDS,MECKLENBURG,VA,VA05,ROBERT HURT (R),R,FEDERAL,CESAW,1952,,N,HIGH,N,N,N,N,42,,4025,,7800,,Y,5,N,,,CE,CE,CE,CE,CE,CE,AS1,0,-78.331,36.591
VA11701,JOHN H. KERR SADDLE DIKE NO. 2,2008-06-24,2013-02-27,ROANOKE RIVER,ROANOKE RAPIDS,MECKLENBURG,VA,VA05,ROBERT HURT (R),R,FEDERAL,CESAW,1952,,N,HIGH,N,N,N,N,15,,910,,7800,,Y,5,N,,,CE,CE,CE,CE,CE,CE,AS2,0,-78.325,36.591
VA11701,JOHN H. KERR SADDLE DIKE NO. 3,2008-06-24,2013-02-27,ROANOKE,ROANOKE RAPIDS,MECKLENBURG,VA,VA05,ROBERT HURT (R),R,FEDERAL,CESAW,1952,,N,HIGH,N,N,N,N,12,,2340,,7800,,Y,5,N,,,CE,CE,CE,CE,CE,CE,AS3,0,-78.315,36.59
VA11701,JOHN H. KERR SADDLE DIKE NO. 4,2008-06-24,2013-02-27,ROANOKE RIVER,ROANOKE RAPIDS,MECKLENBURG,VA,VA05,ROBERT HURT (R),R,FEDERAL,CESAW,1953,,N,HIGH,N,N,N,N,12,,1850,,7800,,Y,5,N,,,CE,CE,CE,CE,CE,CE,AS4,0,-78.269,36.573
VA13510,BUTTERWOOD LOWER DAM,1995-09-09,2013-02-27,UNKNOWN,,NOTTOWAY,VA,VA04,J. RANDY FORBES (R),R,FEDERAL,FORT PICKETT,1973,,N,,N,N,N,N,22,179,165,,,UNKNOWN,N,0,N,DCR,,DOD USA,DOD USA,DOD USA,DOD USA,DOD USA,DOD USA,,0,-77.94,37.06
VA13525,TACTICAL BRIDGE DAM,1995-09-14,2013-02-27,UNKNOWN,,NOTTOWAY,VA,VA04,J. RANDY FORBES (R),R,FEDERAL,FORT PICKETT,1980,,N,,N,N,N,N,40,186,345,,,UNKNOWN,N,0,N,DCR,,DOD USA,DOD USA,DOD USA,DOD USA,DOD USA,DOD USA,,0,-77.9366,37.1083
VA03341,LAKE DEJARNETTE DAM,2009-04-27,2013-03-12,TR-NORTH ANNA,VA STATE ROUTE-30,CAROLINE,VA,VA01,ROBERT J. WITTMAN (R),R,PRIVATE,"CAROLINE PINES P.O.A., INC.",1959,,N,LOW,Y,Y,Y,Y,34,265,200,1782,0.68,,Y,0,Y,DCR,29438,,USDA NRCS,,,,VA,,0,-77.4438,37.8945
DE00053,ABBOTTS POND DAM,2012-05-03,2013-02-04,JOHNSON BRANCH,MILFORD    NE,SUSSEX,DE,DE00,JOHN C. CARNEY JR. (D),D,STATE,DELDOT; DNREC DFW,1960,,N,SIGNIFICANT,Y,Y,Y,Y,14.91,304,675,787.17,8.94,,N,1,Y,DNREC,,,,,,,DE,,0,-75.4762,38.8859
VA00324,ALLMANS DAM,,2013-03-12,TRIB-ROCKCASTLE CREEK,SCOTTSVILLE,ALBEMARLE,VA,VA05,ROBERT HURT (R),R,PRIVATE,"COLEMAN, PAUL M. & VIRGINIA R.",1961,,N,,Y,Y,Y,Y,17,76,400,,,,NR,0,Y,DCR,,,USDA NRCS,,,,VA,,0,-78.5576,37.795
VA04110,ANDREWS DAM,,2013-03-12,LONG SWAMP,COLONIAL HEIGHTS,CHESTERFIELD,VA,VA04,J. RANDY FORBES (R),R,PRIVATE,R. T. ANDREWS,1953,,N,LOW,Y,Y,Y,Y,19,350,,,,,N,0,Y,DCR,,,,,,,VA,,0,-77.4835,37.2933
VA10927,BEAVER DAM,,2013-03-12,BEAVERDAM CREEK,ST.RT.799,LOUISA,VA,VA07,ERIC CANTOR (R),R,NOT LISTED,"HUDGINS, HOWARD L.",1974,,N,LOW,Y,Y,Y,Y,23,76,,,,,NR,0,Y,DCR,,,,,,,VA,,0,-78.255,38.0183
MD00163,BITTINGER FARM POND,2011-11-01,2013-02-04,LITTLE SAVAGE RIVER,MERRILL,GARRETT,MD,MD06,JOHN K. DELANEY (D),D,PRIVATE,ORVAL BITTINGER,1968,"1993,S",N,LOW,Y,Y,Y,Y,17,91,715,121,0.6,USDA NRCS,NR,5,Y,MD DAM SAFETY,19683,,USDA NRCS,,,,MD,,0,-79.0135,39.6255
VA00322,BOAZ DAM,,2013-03-12,TRIB.  COVE CREEK,FABER,ALBEMARLE,VA,VA05,ROBERT HURT (R),R,PRIVATE,COVE CREEK FARMS LLC,1956,,N,,Y,Y,Y,Y,28,109,300,,,,NR,0,Y,DCR,,,USDA NRCS,,,,VA,,0,-78.7241,37.88
VA14348,BROWNING DAM,1996-09-12,2013-03-12,LITTLE STUART CREEK,STONY MILL,PITTSYLVANIA,VA,VA05,ROBERT HURT (R),R,PRIVATE,"PITTSYLVANIA CO., ROD, DOG & GUN CLUB",1949,,N,LOW,Y,Y,Y,Y,29,72,750,,1,,NR,0,Y,DCR,1205560,,USDA NRCS,,,,VA,,0,-79.535,36.68
VA03502,BUCK,2012-05-16,2013-02-28,NEW RIVER,AUSTINVILLE,CARROLL,VA,VA09,H. MORGAN GRIFFITH (R),R,PUBLIC UTILITY,APPALACHIAN POWER COMPANY,1912,1993S,N,HIGH,N,N,N,N,45,708,1340,430000,1320,,Y,1,N,DCR,,,,,FERC,FERC,FERC,,1,-80.9386,36.8078
VA06705,BURDETTES DAM,,2013-03-12,ROARING RUN,ENDICOTT,FRANKLIN,VA,VA05,ROBERT HURT (R),R,NOT LISTED,WALKER BURDETTE,1971,,N,,Y,Y,Y,Y,26,35,230,210,,,N,0,Y,DCR,6000,,USDA NRCS,,,,VA,,0,-80.1733,36.945
VA14510,BYERS DAM,,2013-03-12,TRIB.  FINE CREEK,FINE CREEK MILLS,POWHATAN,VA,VA04,J. RANDY FORBES (R),R,PRIVATE,DON SMITH,1966,,N,,Y,Y,Y,Y,20,521,900,8475,,,NR,0,Y,DCR,22600,,USDA NRCS,,,,VA,,0,-77.8688,37.5826
VA08505,CAMPBELL DAM,,2013-03-12,TR-NEWFOUND RIVER,ASHLAND MILL,HANOVER,VA,VA07,ERIC CANTOR (R),R,PRIVATE,L. D. CAMPBELL JR.,1946,,N,SIGNIFICANT,Y,Y,Y,Y,8,78,800,,,,N,0,Y,DCR,,,,,,,VA,,0,-77.5483,37.8366
VA15901,CHINNS DAM,,2013-03-12,LANCASTER CREEK,MORATTICO,RICHMOND,VA,VA01,ROBERT J. WITTMAN (R),R,PRIVATE,B. DENNIS JR. ESTATE,1850,,N,LOW,Y,Y,Y,Y,12,751,,,,,N,0,Y,DCR,,,,,,,VA,,0,-76.5766,37.8316
DE00055,CHIPMAN POND DAM,2012-04-16,2013-02-04,ELLIOT POND BRANCH,LAUREL   SW,SUSSEX,DE,DE00,JOHN C. CARNEY JR. (D),D,STATE,DELDOT; DNREC DFW,1915,,N,LOW,Y,Y,Y,Y,14.15,771,620,167,16.03,,N,1,Y,DNREC,,,,,,,DE,,0,-75.5397,38.5619
VA04105,COSBY DAM,,2013-03-12,KINGSLAND CREEK,CHIMNEY CORNER,CHESTERFIELD,VA,VA04,J. RANDY FORBES (R),R,PRIVATE,"WATERMARK PROPERTIES, LLC",1956,,N,LOW,Y,Y,Y,Y,17,85,,,,,N,0,Y,DCR,,,,,,,VA,,0,-77.5033,37.415
VA03313,DALTONS DAM,,2013-03-12,MEADOW CREEK,WOODFORD,CAROLINE,VA,VA01,ROBERT J. WITTMAN (R),R,PRIVATE,WALTER PURKS,1800,,N,LOW,Y,Y,Y,Y,20,200,212,,,,N,0,Y,DCR,,,,,,,VA,,0,-77.4183,38.1381
VA13902,DRY RUN DAM #101,2010-04-14,2013-03-12,DRY RUN,LURAY,PAGE,VA,VA06,BOB GOODLATTE (R),R,LOCAL GOVERNMENT,TOWN OF LURAY,1971,,N,HIGH,Y,Y,Y,Y,67,1232,2100,15810,2.6,R. STUART ROYER AND ASSOCIATES,Y,0,Y,DCR,404800,USDA NRCS,USDA NRCS,USDA NRCS,,,VA,,0,-78.3916,38.6416
MD00018,EMMITSBURG DAM,2012-08-30,2013-02-04,TURKEY CREEK,EMMITSBURG,FREDERICK,MD,MD08,CHRIS VAN HOLLEN (D),D,LOCAL GOVERNMENT,TOWN OF EMMITSBURG,,"1984,HS",N,HIGH,Y,Y,Y,Y,30,222,487,2456,0.8,EMMITSBURG WATER CO.,Y,1,Y,MD DAM SAFETY,,,,,,,MD,,0,-77.3885,39.6959
VA15310,ENGH DAM,,2013-03-12,TR-CEDAR RUN,BRENTSVILLE,PRINCE WILLIAM,VA,VA01,ROBERT J. WITTMAN (R),R,PRIVATE,DANIEL S. BYLER,1956,,N,LOW,Y,Y,Y,Y,18,125,700,,,,NR,0,Y,DCR,,,,,,,VA,,0,-77.5233,38.6416
VA06141,FLEETWOOD FARM DAM #2,,2013-03-12,TR-GAP RUN,KERFOOT,FAUQUIER,VA,VA05,ROBERT HURT (R),R,PRIVATE,FLEETWOOD LAND CORPORATION,1970,,N,SIGNIFICANT,Y,Y,Y,Y,18,50,300,,,,N,0,Y,DCR,,,,,,,VA,,0,-77.945,38.9866
DE00030,GARRISONS LAKE DAM,2012-06-25,2013-02-04,LEIPSIC RIVER,LEIPSIC  E,KENT,DE,DE00,JOHN C. CARNEY JR. (D),D,STATE,DELDOT; DNREC DFW,1964,,N,SIGNIFICANT,Y,Y,Y,Y,10.99,1164,685,2740,18.5,,N,1,Y,DNREC,,,,,,,DE,,0,-75.5884,39.244
MD00037,GILBERT RUN DAM 1 (TRINITY CHURCH),2012-08-01,2013-02-04,TRINITY CHURCH RUN,NEWPORT,CHARLES,MD,MD05,STENY H. HOYER (D),D,LOCAL GOVERNMENT,GILBERT RUN WATERSHED ASSOC,1964,1964,N,SIGNIFICANT,Y,Y,Y,Y,41,4840,1690,6100,8.2,USDA NRCS,Y,3,Y,MD DAM SAFETY,246000,USDA NRCS,USDA NRCS,USDA NRCS,,USDA NRCS,MD,,0,-76.8465,38.4532
VA08305,GILLIAM DAM,,2013-03-12,TR-LAWSONS CREEK,SOUTH BOSTON,HALIFAX,VA,VA05,ROBERT HURT (R),R,PRIVATE,ROBERT L. GILLIAM,1971,,N,LOW,N,N,N,N,43,95,,,,,NR,0,N,DCR,,,,,,,VA,,0,-78.94,36.6633
VA16301,GOSHEN DAM,2009-06-09,2013-03-12,LITTLE CALF PASTURE RIVER,ROCKBRIDGE BATHS,ROCKBRIDGE,VA,VA06,BOB GOODLATTE (R),R,PRIVATE,"B.S.A., NATIONAL CAPITAL AREA COUNCIL",1966,,Y,HIGH,Y,Y,Y,Y,38,11200,1300,,85,HERBERT ASSOC.,Y,0,Y,DCR,,,,,,,VA,,0,-79.4583,37.96
DE00060,HEARNS POND DAM,2011-08-17,2013-02-04,CLEAR BROOK,SEAFORD   S,SUSSEX,DE,DE00,JOHN C. CARNEY JR. (D),D,STATE,DNREC DFW,1912,2012,N,SIGNIFICANT,Y,Y,Y,Y,14,1434,570,166,12.83,,N,1,Y,DNREC,,,,,,,DE,,0,-75.594,38.6792
MD00126,HIGGINS MILLPOND,2011-03-18,2013-02-04,TRANSQUAKING RIVER,SAND HILL,DORCHESTER,MD,MD01,ANDY HARRIS (R),R,PRIVATE,WILLIAM WRIGHTSON,1801,"1999,H",N,LOW,Y,Y,Y,Y,8,807,905,450,11.4,GEORGE YOUNG,NR,5,Y,MD DAM SAFETY,,,,,,,MD,,0,-75.9645,38.5183
VA00333,IRISH LANGHORNE DAM,,2013-03-12,TRIB.  TOTIER CREEK,SCOTTSVILLE,ALBEMARLE,VA,VA05,ROBERT HURT (R),R,PRIVATE,"SCOTTLAND FARM, LLC",1957,,N,,Y,Y,Y,Y,37,190,410,1300,,,N,0,Y,DCR,78000,,USDA NRCS,,,,VA,,0,-78.5418,37.8075
VA11702,ISLAND CREEK DAM,2008-06-25,2013-02-27,ISLAND CREEK,TUNGSTEN,MECKLENBURG,VA,VA05,ROBERT HURT (R),R,FEDERAL,CESAW,1951,,N,HIGH,N,N,N,N,92,43500,2100,,67,COE,Y,5,N,DCR,,CE,CE,CE,CE,CE,CE,,0,-78.4666,36.5499
VA14111,JACKSON/MOORE DAM,2002-04-03,2013-03-12,TRIB TO MAYO RIVER,STUART,PATRICK,VA,VA09,H. MORGAN GRIFFITH (R),R,PRIVATE,DEBI MILLER MOORE,1979,,N,SIGNIFICANT,Y,Y,Y,Y,29,41,175,486,0.92,,Y,0,Y,DCR,7782,,USDA NRCS,,,,VA,,0,-80.2866,36.6916
MD00103,LAKE BONNIE,2009-11-19,2013-02-04,BROADWAY BRANCH,GREENSBORO,CAROLINE,MD,MD01,ANDY HARRIS (R),R,PRIVATE,JOHN MERSON,1850,"2000,O",N,LOW,Y,Y,Y,Y,14,495,418,2600,11.7,UNKNOWN,NR,5,Y,MD DAM SAFETY,,,,,,,MD,,0,-75.776,39.0192
VA18705,LAKE FRONT ROYAL DAM,2011-01-27,2013-03-12,SLOAN CREEK(OFF STREAM),FRONT ROYAL,WARREN,VA,VA06,BOB GOODLATTE (R),R,PRIVATE,"LAKE FRONT ROYAL POA, INC.",1970,,N,SIGNIFICANT,Y,Y,Y,Y,26,84,1600,,0.1,UNKNOWN,Y,0,Y,DCR,,,,,,,VA,,0,-78.1516,38.8766
VA15306,LAKE JACKSON DAM,2008-09-08,2013-03-12,OCCOQUAN RIVER,RAVENWOOD,PRINCE WILLIAM,VA,VA01,ROBERT J. WITTMAN (R),R,LOCAL GOVERNMENT,PRINCE WILLIAM COUNTY,1928,,N,SIGNIFICANT,Y,Y,Y,Y,28,13500,380,,343,UNKNOWN,Y,0,Y,DCR,,,,,,,VA,,0,-77.4483,38.705
MD00122,LAKE JENNIFER,2010-04-07,2013-02-04,OFFSTREAM-TR-SOUTH FORK,LINGANORE,FREDERICK,MD,MD08,CHRIS VAN HOLLEN (D),D,PRIVATE,LAKE JENNIFER COMMON,1963,1963,N,LOW,Y,Y,Y,Y,15,55,1700,27,0.1,USDA NRCS,NR,3,Y,MD DAM SAFETY,1,,USDA NRCS,,,,MD,,0,-77.1583,39.4116
VA13703,LAKE ORANGE DAM,2008-08-12,2013-03-12,CLEAR CREEK,LAHORE,ORANGE,VA,VA07,ERIC CANTOR (R),R,STATE,VA DEPARTMENT OF GAME & INLAND FISHERIES,1964,,N,LOW,Y,Y,Y,Y,44,2958,980,,3.75,UNKNOWN,Y,0,Y,DCR,,,,,,,VA,,0,-78.0133,38.2033
VA16505,LAKE SHENANDOAH DAM,2004-06-09,2013-03-12,CONGERS RUN,GOOD MILLS,ROCKINGHAM,VA,VA06,BOB GOODLATTE (R),R,STATE,VA DEPARTMENT OF GAME & INLAND FISHERIES,1956,,N,SIGNIFICANT,Y,Y,Y,Y,31,720,315,,4.5,WARREN C.PARROW,Y,0,Y,DCR,,,,,,,VA,,0,-78.8333,38.3783
VA10302,LANCASTER ROLLER MILL DAM,,2013-03-12,CAMP PRONG,IBERIS,LANCASTER,VA,VA01,ROBERT J. WITTMAN (R),R,PRIVATE,EDWARD KEMPER,1920,,N,LOW,Y,Y,Y,Y,21,776,,,,,NR,0,Y,DCR,,,,,,,VA,,0,-76.3966,37.745
VA16701,LAUREL BED DAM,2010-04-02,2013-03-12,LAUREL BED CREEK,TUMBLING COVE,RUSSELL,VA,VA09,H. MORGAN GRIFFITH (R),R,STATE,VA DEPARTMENT OF GAME & INLAND FISHERIES,1968,,Y,HIGH,Y,Y,Y,Y,48,8100,275,,4.2,WARREN C PERROW,Y,0,Y,DCR,,,,,,,VA,,0,-81.8133,36.955
MD00156,LEONARD POND,2012-10-30,2013-02-04,LEONARD POND RUN,SALISBURY,WICOMICO,MD,MD01,ANDY HARRIS (R),R,LOCAL GOVERNMENT,WICOMICO COUNTY,1914,"1986,H",N,LOW,Y,Y,Y,Y,11,300,555,1700,13.8,UNKNOWN,NR,5,Y,MD DAM SAFETY,,,,,,,MD,,0,-75.5655,38.4233
VA18103,LOW POINT DAM,,2013-03-12,BAILEY BRANCH,CLAREMONT,SURRY,VA,VA03,ROBERT C. ???BOBBY??? SCOTT (D),D,PRIVATE,E. A. HATCH,1965,,N,,Y,Y,Y,Y,23,473,729,243,,,NR,0,Y,DCR,29342,,USDA NRCS,,,,VA,,0,-77.0283,37.2
VA16501,LOWER NORTH RIVER #80,2009-05-06,2013-03-12,UNION SPRINGS RUN,OTTOBINE,ROCKINGHAM,VA,VA06,BOB GOODLATTE (R),R,LOCAL GOVERNMENT,SHENANDOAH VALLEY SWCD,1967,,N,HIGH,Y,Y,Y,Y,84,1345,925,12670,5.2,USDA NRCS,Y,0,Y,DCR,303050,USDA NRCS,USDA NRCS,USDA NRCS,,,VA,,0,-79.0616,38.4716
VA08908,MARROWBONE CREEK DAM #1,2009-02-18,2013-03-12,MARROWBONE CREEK,MARROWBONE HEIGHTS,HENRY,VA,VA09,H. MORGAN GRIFFITH (R),R,LOCAL GOVERNMENT,BLUE RIDGE SWCD,1960,,N,HIGH,Y,Y,Y,Y,47,2343,860,8100,11.1,USDA NRCS,Y,0,Y,DCR,53000,USDA NRCS,USDA NRCS,USDA NRCS,,,VA,,0,-79.9033,36.57
VA10107,CURLING DAM,,2013-03-12,TRIB. PAMUNKEY RIVER,WEST POINT,KING WILLIAM,VA,VA01,ROBERT J. WITTMAN (R),R,PRIVATE,HOLLYFIELD FARM,1935,,N,LOW,Y,Y,Y,Y,14,151,,,,,NR,0,Y,DCR,,,,,,,VA,,0,-77.1606,37.6748
VA00701,AMELIA DAM,2012-02-28,2013-03-12,TR-APPOMATTOX RIVER,VA STATE ROUTE-604,AMELIA,VA,VA04,J. RANDY FORBES (R),R,STATE,VA DEPARTMENT OF GAME & INLAND FISHERIES,1975,,Y,LOW,Y,Y,Y,Y,38,2100,880,,2.14,DEPARTMENT OF GAME AND INLAND FISHERIES,Y,0,Y,DCR,,,,,,,VA,,0,-77.92,37.4716
VA05708,BAYLORS DAM,,2013-03-12,TR-RAPPAHANNOCK RIVER,LEEDSTOWN,ESSEX,VA,VA01,ROBERT J. WITTMAN (R),R,PRIVATE,A. F. MISTR,1860,,N,LOW,Y,Y,Y,Y,14,332,,,,,NR,0,Y,DCR,,,,,,,VA,,0,-77.0683,38.105
VA01705,BEAR LOOP HUNT CLUB DAM,,2013-03-12,LITTLE WILSON CREEK,COWPASTURE RIVER,BATH,VA,VA06,BOB GOODLATTE (R),R,NOT LISTED,BEAR LOOP HUNT CLUB,1961,,N,SIGNIFICANT,Y,Y,Y,Y,22,74,,,,,N,0,Y,DCR,,,,,,,VA,,0,-79.7233,37.9933
VA19101,BEAVER CREEK,2008-11-19,2013-02-27,BEAVER CREEK,BRISTOL,WASHINGTON,VA,VA09,H. MORGAN GRIFFITH (R),R,FEDERAL,TVA,1965,,N,HIGH,N,N,N,N,85,6920,1588,18420,13.7,TVA,Y,5,N,DCR,623302,,TVA,TVA,TVA,TVA,TVA,,0,-82.109,36.645
VA01903,BEAVERDAM CREEK DAM,2007-06-08,2013-03-12,BEAVERDAM CREEK,STEWARTSVILLE,BEDFORD,VA,VA05,ROBERT HURT (R),R,LOCAL GOVERNMENT,WESTERN VIRGINIA WATER AUTHORITY,1925,,N,SIGNIFICANT,Y,Y,Y,Y,68,2010,450,,1.4,,Y,0,Y,DCR,,,,,,,VA,,0,-79.815,37.3133
VA19502,BIG CHERRY OLD DAM,2006-06-29,2013-03-12,SOUTH FORK POWELL RIVER,EAST STONE GAP,WISE,VA,VA09,H. MORGAN GRIFFITH (R),R,LOCAL GOVERNMENT,TOWN OF BIG STONE GAP,1935,,N,HIGH,Y,Y,Y,Y,43,1630,225,,5.5,WILEY & WILSON,NR,0,Y,DCR,,,,,,,VA,,0,-82.6716,36.8466
MD00148,BLOEDE DAM,2011-10-12,2013-02-04,PATAPSCO RIVER,ELKRIDGE,BALTIMORE,MD,MD07,ELIJAH E. CUMMINGS (D),D,STATE,"MD DNR-PUBLIC LANDS, ENGINEERING & CONSTR-CENTRAL",1907,"1994,O FISH LADDER",N,SIGNIFICANT,Y,Y,Y,Y,34,600,220,16000,304,"DAVE WHEELOCK (MOD),AMBURSEN ENGINEERING (ORIG)",Y,5,Y,MD DAM SAFETY,,,,,,,MD,,0,-76.7617,39.2467
VA07506,BOLLING HALL DAM,,2013-03-12,THREE SQUARE CREEK,IRWIN,GOOCHLAND,VA,VA07,ERIC CANTOR (R),R,PRIVATE,B. C. GOTTWALD,1968,,N,,Y,Y,Y,Y,22,224,480,7069,,,NR,0,Y,DCR,17260,,USDA NRCS,,,,VA,,0,-77.9633,37.6683
MD00187,BOWENS FARM POND,2001-08-21,2013-02-04,TR-CYPRESS SWAMP,WILLIAMS WHARF,CALVERT,MD,MD05,STENY H. HOYER (D),D,PRIVATE,PERRY BOWEN,1970,1970,N,LOW,Y,Y,Y,Y,27,91,300,205,0.5,USDA NRCS,NR,5,Y,MD DAM SAFETY,1,,USDA NRCS,,,,MD,,0,-76.6133,38.5047
VA03305,BOWIES DAM,2010-09-20,2013-02-27,CAMPBELL CREEK,MILFORD,CAROLINE,VA,VA01,ROBERT J. WITTMAN (R),R,FEDERAL,FORT A P HILL,1940,,N,LOW,Y,Y,Y,Y,14,449,700,1566,10.16,VDOT,Y,5,Y,DCR,,DOD USA,DOD USA,DOD USA,DOD USA,DOD USA,DOD USA,,0,-77.0483,38.0483
VA06704,BOWMANS DAM,,2013-03-12,TR-WHITE OAK CREEK,BONBROOK,FRANKLIN,VA,VA05,ROBERT HURT (R),R,NOT LISTED,JOSIAH WEAVER,1969,,N,SIGNIFICANT,N,N,N,N,28,64,,,,,N,0,N,DCR,,,,,,,VA,,0,-79.915,37.14
VA04704,BRANDY ROCK FARM DAM,,2013-03-12,RUFFINS RUN,REMINGTON,CULPEPER,VA,VA07,ERIC CANTOR (R),R,PRIVATE,"BRANDY ROCK FARM, INC.",1957,,N,LOW,Y,Y,Y,Y,24,250,,,,,NR,0,Y,DCR,,,,,,,VA,,0,-77.9016,38.5433
DE00045,BRANDYWINE CREEK DAM NO. 9,,2013-02-04,BRANDYWINE CREEK,WILMINGTON,NEW CASTLE,DE,DE00,JOHN C. CARNEY JR. (D),D,STATE,DNREC DPR,1800,,N,LOW,N,N,N,N,9.18,807,140,1933,304.37,,NR,0,N,,,,,,,,DE,,0,-75.5749,39.7975
VA04101,BRASFIELD DAM,,2013-03-12,APPOMATTOX RIVER,PETERSBURG,CHESTERFIELD,VA,VA04,J. RANDY FORBES (R),R,PRIVATE,APPOMATTOX RIVER WATER AUTH.,1968,,N,HIGH,Y,Y,Y,Y,57,79500,,,,,N,0,Y,DCR,,,,,,,VA,,0,-77.5283,37.22
VA10928,BRICKHEAD DAM,,2013-03-12,TR-BUCK BRANCH,ZIONS CROSSROADS,LOUISA,VA,VA07,ERIC CANTOR (R),R,PRIVATE,L. DOUGLAS BRICKHEAD,1970,,N,LOW,Y,Y,Y,Y,18,80,,,,,NR,0,Y,DCR,,,,,,,VA,,0,-78.2716,37.9983
VA11905,BURCH MILL DAM,,2013-03-12,LAGRANGE CREEK,URBANNA,MIDDLESEX,VA,VA01,ROBERT J. WITTMAN (R),R,PRIVATE,ZIMMERMAN,1900,,N,LOW,Y,Y,Y,Y,15,169,,,,,NR,0,Y,DCR,,,,,,,VA,,0,-76.6433,37.6866
VA13521,LUSH DAM,1997-03-08,2013-03-12,FLAT CREEK,ST RT 629,NOTTOWAY,VA,VA04,J. RANDY FORBES (R),R,PRIVATE,SCOTT THRIFT,1954,,N,LOW,Y,Y,Y,Y,29.5,117,700,331,0.21,,NR,0,Y,DCR,74485,,USDA NRCS,,,,VA,,0,-78.1966,37.2033
VA06115,AIRLIE DAM,,2013-03-12,CEDAR RUN,WARRENTON,FAUQUIER,VA,VA05,ROBERT HURT (R),R,PRIVATE,KIMMAREN CORPORATION,1936,,N,SIGNIFICANT,Y,Y,Y,Y,24,441,783,,,UNKNOWN,N,0,Y,DCR,,,,,,,VA,,0,-77.7916,38.76
VA04926,ARROWHEAD LAKE DAM,,2013-03-08,WILLIS RIVER,GRANTS MILL,CUMBERLAND,VA,VA05,ROBERT HURT (R),R,STATE,VA. DEPT. OF FORESTRY,1964,,N,,N,N,N,N,21,86,307,1295,,,NR,0,N,,8206,,USDA NRCS,,,,USDA NRCS,,0,-78.2902,37.5273
MD00067,ATKINSSON DAM,2009-09-14,2013-02-27,WINTERS RUN,EDGEWOOD,HARFORD,MD,MD01,ANDY HARRIS (R),R,FEDERAL,ABERDEEN PROVING GROUND,1942,1970,N,HIGH,Y,Y,Y,Y,58.7,2510,468,,44,USACE,Y,4,Y,MD DAM SAFETY,,DOD USA,DOD USA,DOD USA,DOD USA,DOD USA,DOD USA,,1,-76.34,39.47
VA00706,BARDENS DAM,,2013-03-12,HAW BRANCH,ST.RT.636,AMELIA,VA,VA04,J. RANDY FORBES (R),R,PRIVATE,HERRING,1840,,N,LOW,Y,Y,Y,Y,15,110,,,,,NR,0,Y,DCR,,,,,,,VA,,0,-78.0366,37.4183
VA04902,BEAR CREEK DAM,2011-12-25,2013-03-12,BEAR CREEK,TRENTS MILL,CUMBERLAND,VA,VA05,ROBERT HURT (R),R,STATE,"VA DCR, DIVISION OF STATE PARKS",1939,,N,LOW,Y,Y,Y,Y,33,4140,392,,0.55,DEPARTMENT OF INTERIOR / BUREAU OF LAND MANAGEMENT,Y,0,Y,DCR,,,,,,,VA,,0,-78.275,37.5333
DE00011,BELLEVUE LAKE DAM,,2013-02-04,STONEY CREEK,HOLLY CR - CLAYMONT,NEW CASTLE,DE,DE00,JOHN C. CARNEY JR. (D),D,PRIVATE,UNIITED WATER DELAWARE,1933,,N,LOW,N,N,N,N,15,145,330,93,2,,NR,0,N,,,,,,,,DE,,0,-75.487,39.7801
VA04711,BENZINGER DAM,,2013-03-12,TR-JONAS CREEK,BRANDY STATION,CULPEPER,VA,VA07,ERIC CANTOR (R),R,PRIVATE,BENNY L. ADAMS,1960,,N,LOW,Y,Y,Y,Y,20,138,300,,,,NR,0,Y,DCR,,,,,,,VA,,0,-77.96,38.5133
DE00066,BETTS POND ROUTE 113 DAM,2012-04-11,2013-02-04,SHOALS BRANCH,MILLSBORO  NE,SUSSEX,DE,DE00,JOHN C. CARNEY JR. (D),D,STATE,DELDOT,1956,,N,SIGNIFICANT,Y,Y,Y,Y,10,400,400,994,16.17,,N,1,Y,DNREC,,,,,,,DE,,0,-75.3124,38.5951
VA06137,BIG LAKE DAM,,2013-03-12,TR-WEST BRANCH,HUME,FAUQUIER,VA,VA05,ROBERT HURT (R),R,PRIVATE,VON WEDEKIND PROPERTIES LTD.,1970,,N,LOW,Y,Y,Y,Y,24,72,480,,,,NR,0,Y,DCR,,,,,,,VA,,0,-77.9716,38.8466
DE00070,BLAIRS POND DAM,2011-07-26,2013-02-04,BEAVERDAM BRANCH,HOUSTON,KENT,DE,DE00,JOHN C. CARNEY JR. (D),D,STATE,DNREC DFW,,,N,SIGNIFICANT,Y,Y,Y,Y,14.94,611,470,1076.04,10.38,,N,1,Y,DNREC,,,,,,,DE,,0,-75.4848,38.9039
MD00061,BLAIRS VALLEY DAM,2012-05-29,2013-02-04,LITTLE CONOCOCHEAGUE CREEK,SHADY BOWER,WASHINGTON,MD,MD06,JOHN K. DELANEY (D),D,STATE,MD DNR INDIAN SPRINGS WMA,1968,"1983,H GABION SPILLWAY LINING",N,HIGH,Y,Y,Y,Y,34,679,670,4150,3.4,MD DEPT.OF GENL SERVICES,Y,1,Y,MD DAM SAFETY,,,,,,,MD,,0,-77.9415,39.6961
MD00165,BOND FARM POND,2003-10-01,2013-02-04,TR-SPRUCE RUN,ELLERTON,FREDERICK,MD,MD08,CHRIS VAN HOLLEN (D),D,PRIVATE,WILLIAM M BOND,1973,1973,N,LOW,Y,Y,Y,Y,27,122,625,77,0.3,USDA NRCS,NR,5,Y,MD DAM SAFETY,15200,,USDA NRCS,,,,MD,,0,-77.5436,39.5642
VA00912,BUFFALO RIVER DAM #2,2012-03-31,2013-03-12,THRASHERS CREEK,HENLEYS STORE,AMHERST,VA,VA06,BOB GOODLATTE (R),R,LOCAL GOVERNMENT,COUNTY OF AMHERST,1978,,N,HIGH,Y,Y,Y,Y,74,2562,830,24524,6.8,USDA NRCS,Y,0,Y,DCR,314070,USDA NRCS,USDA NRCS,USDA NRCS,,,VA,,0,-79.1383,37.67
VA00107,BUNDICK CREEK DAM,,2013-03-12,BUNDICK CREEK,ATLANTIC OCEAN,ACCOMACK,VA,VA02,E. SCOTT RIGELL (R),R,PRIVATE,RANDOLF STERLING,1965,,N,,Y,Y,Y,Y,8,50,578,154,,,NR,0,Y,DCR,3836,,USDA NRCS,,,,VA,,0,-75.5966,37.7616
VA05307,BURNT QUARTER DAM,2012-03-25,2013-03-12,CHAMBERLAIN BED CREEK,DINWIDDIE,DINWIDDIE,VA,VA04,J. RANDY FORBES (R),R,PRIVATE,STEPHEN F & CAROLYN M. PERRY,1951,,N,LOW,Y,Y,Y,Y,31,1135,200,,3.72,UNKNOWN,Y,0,Y,DCR,,,,,,,VA,,0,-77.6166,37.1166
VA00917,BURRUSS DAM,,2013-03-12,CEDAR CREEK,PEDLAR MILLS,AMHERST,VA,VA06,BOB GOODLATTE (R),R,PRIVATE,JAMES R. BURRUSS; RSB PROPERTIES,1958,,N,LOW,Y,Y,Y,Y,20,95,,,,,NR,0,Y,DCR,,,,,,,VA,,0,-79.29,37.5766
VA14739,BUSH RIVER DAM #5,2011-03-08,2013-03-12,CAMP CREEK,ST RT 647,PRINCE EDWARD,VA,VA05,ROBERT HURT (R),R,LOCAL GOVERNMENT,PIEDMONT SWCD,1994,,N,LOW,Y,Y,Y,Y,41,1008,580,9474,2.03,USDA NRCS,Y,0,Y,DCR,64800,USDA NRCS,USDA NRCS,USDA NRCS,,,VA,,0,-78.3833,37.15
VA14302,CHERRYSTONE CREEK DAM #1,2011-09-14,2013-03-12,CHERRYSTONE CREEK,CHATHAM,PITTSYLVANIA,VA,VA05,ROBERT HURT (R),R,LOCAL GOVERNMENT,TOWN OF CHATHAM,1967,0,N,SIGNIFICANT,Y,Y,Y,Y,57,7152,790,16470,14.7,USDA NRCS,Y,0,Y,DCR,183730,USDA NRCS,USDA NRCS,USDA NRCS,,,VA,,0,-79.4333,36.85
VA14303,CHERRYSTONE CREEK DAM #2A,2011-09-14,2013-03-12,ROARING FORK,CHATHAM,PITTSYLVANIA,VA,VA05,ROBERT HURT (R),R,LOCAL GOVERNMENT,TOWN OF CHATHAM,1968,0,N,SIGNIFICANT,Y,Y,Y,Y,68,1636,400,9950,5.7,USDA NRCS,Y,0,Y,DCR,83740,USDA NRCS,USDA NRCS,USDA NRCS,,,VA,,0,-79.4316,36.845
VA13302,CLARKS MILL DAM,,2013-03-12,TR-COAN RIVER,BUNDICK,NORTHUMBERLAND,VA,VA01,ROBERT J. WITTMAN (R),R,PRIVATE,C. H. CLARK JR.,1935,,N,LOW,Y,Y,Y,Y,20,138,450,,,,N,0,Y,DCR,,,,,,,VA,,0,-76.4678,37.9321
VA15502,CLAYTOR,2012-05-15,2013-02-28,NEW RIVER,RADFORD,PULASKI,VA,VA09,H. MORGAN GRIFFITH (R),R,PUBLIC UTILITY,APPALACHIAN POWER COMPANY,1939,1984S,N,HIGH,N,N,N,N,139,232000,1150,1043800,2382,,Y,1,N,DCR,,,,,FERC,FERC,FERC,,1,-80.5853,37.0753
DE00085,CLENDANIEL POND DAM,,2013-02-04,HUDSON MILL,ELLENDALE    SOUTH,SUSSEX,DE,DE00,JOHN C. CARNEY JR. (D),D,PRIVATE,JOSEPH WARNELL,1810,,N,SIGNIFICANT,N,N,N,N,10.21,330,445,279,8.93,,NR,0,N,,,,,,,,DE,,0,-75.4043,38.8577
VA03315,COLLINS DAM,,2013-03-12,DOCTORS CREEK,BUTLERS FORK,CAROLINE,VA,VA01,ROBERT J. WITTMAN (R),R,PRIVATE,"COLLINS, JAMES B. , ET AL",1800,,N,LOW,Y,Y,Y,Y,15,316,,,,,N,0,Y,DCR,,,,,,,VA,,0,-77.2745,37.964
DE00044,CONCORD POND DAM,2012-04-16,2013-02-04,DEEP CREEK,SEAFORD    W,SUSSEX,DE,DE00,JOHN C. CARNEY JR. (D),D,STATE,DELDOT; DNREC DFW,1978,1978,N,SIGNIFICANT,Y,Y,Y,Y,14.31,1481,565,7700,63.49,,N,1,Y,DNREC,,,,,,,DE,,0,-75.554,38.6431
VA09705,CORBIN MILL DAM,,2013-03-12,TASTINE SWAMP/CORBIN MILL CREEK,WEST POINT,KING AND QUEEN,VA,VA01,ROBERT J. WITTMAN (R),R,PRIVATE,CORBIN CLUB,1900,,N,LOW,Y,Y,Y,Y,13,327,600,,,,N,0,Y,DCR,,,,,,,VA,,0,-76.7616,37.5765
DE00038,COURSEY POND DAM,2012-06-19,2013-02-04,MURDERKILL RIVER,FREDERICA,KENT,DE,DE00,JOHN C. CARNEY JR. (D),D,STATE,DELDOT; DNREC DFW,1967,,N,LOW,Y,Y,Y,Y,19.69,1150,350,6530,21.85,,N,1,Y,DNREC,,,,,,,DE,,0,-75.5105,38.9888
MD00208,CRABBS BRANCH SWM FACILITY,2012-06-04,2013-02-04,CRABBS BRANCH,TWIN BROOK FOREST,MONTGOMERY,MD,MD06,JOHN K. DELANEY (D),D,LOCAL GOVERNMENT,MONTGOMERY COUNTY DEP,1983,"2007,S",N,HIGH,Y,Y,Y,Y,27,311,950,4200,0.9,URS ENGINEERS (2007); :RK&K (1983 ORIG.),Y,1,Y,MD DAM SAFETY,,,,,,,MD,,0,-77.1583,39.1216
VA00331,CROWN ORCHARD SOUTH DAM,,2013-03-12,TR-STILLHOUSE CREEK,BATESVILLE,ALBEMARLE,VA,VA05,ROBERT HURT (R),R,PRIVATE,"CHILES, HENRY",1960,,N,LOW,Y,Y,Y,Y,38,54,250,,,,NR,0,Y,DCR,,,,,,,VA,,0,-78.7416,37.9541
DE00086,CUBBAGE POND DAM,2012-05-10,2013-02-04,CEDAR CREEK,MILFORD   NW,SUSSEX,DE,DE00,JOHN C. CARNEY JR. (D),D,STATE,DELDOT,1880,,N,SIGNIFICANT,Y,Y,Y,Y,11.11,480,575,1362,10.49,,N,1,Y,DNREC,,,,,,,DE,,0,-75.3903,38.8656
VA00906,EARLEY DAM,2008-02-20,2013-03-12,ROCKY CREEK,ST RT 60,AMHERST,VA,VA06,BOB GOODLATTE (R),R,PRIVATE,VIRGINIA E. HOLT,1952,,N,LOW,Y,Y,Y,Y,36.79,689,550,2700,1.9,,Y,0,Y,DCR,42200,,USDA NRCS,,,,VA,,0,-79.0216,37.5283
VA18105,EASTOVER DAM,,2013-03-12,SPRING RUN CREEK,ST RT 618,SURRY,VA,VA03,ROBERT C. ???BOBBY??? SCOTT (D),D,PRIVATE,RICHARD SPAIN,1954,,N,LOW,Y,Y,Y,Y,19,66,,,,,NR,0,Y,DCR,,,,,,,VA,,0,-76.9033,37.185
VA09307,ECHO DAM,,2013-03-12,TR-CHAMPION SWAMP,SMITHFIELD,ISLE OF WIGHT,VA,VA04,J. RANDY FORBES (R),R,PRIVATE,J. E. PIERCE,1903,,N,LOW,Y,Y,Y,Y,20,164,,,,,NR,0,Y,DCR,,,,,,,VA,,0,-76.6333,36.9466
MD00083,EDGEWATER VILLAGE DAM,2011-06-10,2013-02-04,TR-OTTER POINT CREEK,OTTER POINT,HARFORD,MD,MD02,C. A. DUTCH RUPPERSBERGER (D),D,LOCAL GOVERNMENT,HARFORD COUNTY DPW,1971,"1991,H",N,HIGH,Y,Y,Y,Y,29,171,800,1110,0.3,,Y,1,Y,MD DAM SAFETY,,,,,,,MD,,0,-76.3099,39.432
VA13502,EPES DAM,2010-11-12,2013-03-12,HORSEPEN CREEK,ST RT 40,NOTTOWAY,VA,VA04,J. RANDY FORBES (R),R,PRIVATE,LEWIS AND KAREN IRBY,1931,,N,LOW,Y,Y,Y,Y,28.8,150,305,,3.1,UNKNOWN,Y,0,Y,DCR,,,,,,,VA,,0,-78.095,37.0433
VA07509,FAIRFIELD DAM,,2013-03-12,TR-BIG LICKING HOLE CREEK,IRWIN,GOOCHLAND,VA,VA07,ERIC CANTOR (R),R,PRIVATE,MARTHA HUME,1967,,N,,Y,Y,Y,Y,19,78,357,3492,,,NR,0,Y,DCR,4050,,USDA NRCS,,,,VA,,0,-77.958,37.6998
MD00206,FRESH WATER POND,2011-06-29,2013-03-05,TR,PRINCIPIO FURNACE,CECIL,MD,,,,PRIVATE,YORK BUILDING PRODUCTS COMPANY INC,,,N,LOW,N,N,N,N,25,117,582,,,AKENS ENGINEERING ASSOCIATES INC.,N,0,N,,,,,,DOL MSHA,DOL MSHA,DOL MSHA,,0,0,0
VA18313,GAME RESERVE DAM,,2013-03-12,DOBIE SWAMP,ST RT 626,SUSSEX,VA,VA04,J. RANDY FORBES (R),R,STATE,VA DEPARTMENT OF GAME & INLAND FISHERIES,1935,,N,LOW,Y,Y,Y,Y,16,106,,,,,NR,0,Y,DCR,,,,,,,VA,,0,-77.2366,37.0383
VA08703,GILLIE CREEK DAM,1999-03-03,2013-03-12,STONY RUN,RICHMOND,HENRICO,VA,VA03,ROBERT C. ???BOBBY??? SCOTT (D),D,PRIVATE,"NSG, LLC",1956,,N,SIGNIFICANT,Y,Y,Y,Y,30,247,350,2484,1.25,,Y,0,Y,DCR,41405,,USDA NRCS,,,,VA,,0,-77.36,37.5366
VA06124,GLASCOCK RUN DAM,,2013-03-12,GLASCOCK RUN,WATERLOO,FAUQUIER,VA,VA05,ROBERT HURT (R),R,PRIVATE,RIVERSIDE FARM PARTNERSHIP,1960,,N,LOW,Y,Y,Y,Y,20,260,500,,,,NR,0,Y,DCR,,,,,,,VA,,0,-77.9466,38.6966
MD00166,GOLDBERG POND,2001-08-03,2013-02-04,HAWLINGS RIVER,CAMP BENNETT,MONTGOMERY,MD,MD08,CHRIS VAN HOLLEN (D),D,PRIVATE,DAVID GOLDBERG,1965,"2000,S",N,LOW,Y,Y,Y,Y,20,106,250,428,0.8,USDA NRCS,NR,5,Y,MD DAM SAFETY,10700,,USDA NRCS,,,,MD,,0,-77.0905,39.2183
VA04111,GORDON DAM,,2013-03-12,TR-TURKEY CREEK,SWIFT CREEK RESERVOIR,CHESTERFIELD,VA,VA07,ERIC CANTOR (R),R,PRIVATE,JAMES W. GORDON JR.,1970,,N,LOW,Y,Y,Y,Y,20,92,436,,,,NR,0,Y,DCR,,,,,,,VA,,0,-77.7383,37.46
VA02507,GREAT CREEK DAM #6A,2011-11-03,2013-03-12,GREAT CREEK,ST RT 58,BRUNSWICK,VA,VA05,ROBERT HURT (R),R,LOCAL GOVERNMENT,BRUNSWICK COUNTY,1987,,N,HIGH,Y,Y,Y,Y,83,27854,1370,33900,41.1,USDA NRCS,Y,0,Y,DCR,256970,USDA NRCS,USDA NRCS,USDA NRCS,,,VA,,0,-77.8916,36.7683
MD00042,GREENBRIER STATE PARK DAM & DIKE,2012-11-08,2013-02-04,TR-LITTLE BEAVER CREEK,MOUNT LENA/GREENBRIAR,WASHINGTON,MD,MD06,JOHN K. DELANEY (D),D,STATE,"MD DNR-PUBLIC LANDS, ENGINEERING & CONSTR-WESTERN",1965,"1996,S",N,HIGH,Y,Y,Y,Y,64,734,445,14168,0.8,SCHNABLE ENGR (REPAIRS); JAMES H. LUDLOW ASSOC.(ORIG. DESIGN),Y,1,Y,MD DAM SAFETY,,,,,,,MD,,2,-77.6213,39.5389
VA10109,GUTHERIE DAM,,2013-03-12,TR-FORKBRIDGE CREEK,MITCHELL MILLPOND,KING WILLIAM,VA,VA01,ROBERT J. WITTMAN (R),R,PRIVATE,R. L. GUTHERIE,1920,,N,LOW,Y,Y,Y,Y,18,165,,,,,NR,0,Y,DCR,,,,,,,VA,,0,-77.21,37.8183
VA01917,HARRINGTON DAM,,2013-03-12,WIDE MOUTH CREEK,LYNCHBURG,BEDFORD,VA,VA06,BOB GOODLATTE (R),R,NOT LISTED,DONALD W. HARRINGTON,1931,,N,LOW,Y,Y,Y,Y,20,54,,,,,NR,0,Y,DCR,,,,,,,VA,,0,-79.2283,37.48
VA06108,HERBERT DAM,,2013-03-12,TR-GOOSE CREEK,RECTORTOWN,FAUQUIER,VA,VA05,ROBERT HURT (R),R,PRIVATE,FLINT HILL LIMITED PARTNERSHIP,1960,,N,LOW,Y,Y,Y,Y,22,110,100,,,,NR,0,Y,DCR,,,,,,,VA,,0,-77.8883,38.9066
VA06910,HIGH VIEW MANOR DAM,,2013-03-12,GOUGH RUN,FAWCETT GAP,FREDERICK,VA,VA10,FRANK R. WOLF (R),R,PRIVATE,"HIGH VIEW MANOR, INC.",1960,,N,LOW,Y,Y,Y,Y,24,97,450,,,USDA(NRCS),NR,0,Y,DCR,,,,,,,VA,,0,-78.3166,39.1633
VA08912,HORSE PASTURE CREEK DAM #1C,1997-07-08,2013-03-12,HORSE PASTURE CREEK,SPENCER,HENRY,VA,VA09,H. MORGAN GRIFFITH (R),R,LOCAL GOVERNMENT,BLUE RIDGE SWCD,1973,,N,LOW,Y,Y,Y,Y,53,985,615,7097,5.14,USDA NRCS,Y,0,Y,DCR,113880,USDA NRCS,USDA NRCS,USDA NRCS,,,VA,,0,-80.0133,36.6633
VA18328,MORGANS DAM,,2013-03-12,TR-SNAKE BRANCH,STONY CREEK,SUSSEX,VA,VA04,J. RANDY FORBES (R),R,PRIVATE,GENE MORGAN,1974,,N,,Y,Y,Y,Y,23,110,536,1625,,,NR,0,Y,DCR,7781,,USDA NRCS,,,,VA,,0,-77.43,36.9733
DE00067,MORRIS MILLPOND DAM,,2013-02-04,DEEP BRANCH,MILLSBORO   SE,SUSSEX,DE,DE00,JOHN C. CARNEY JR. (D),D,PRIVATE,VINCENT STREET,1929,,N,SIGNIFICANT,N,N,N,N,10,440,400,,,,NR,0,N,,,,,,,,DE,,0,-75.3166,38.64
VA17704,MOTTS RUN RESERVOIR DAM,2002-12-04,2013-03-12,MOTTS RUN,FREDERICKSBURG,SPOTSYLVANIA,VA,VA01,ROBERT J. WITTMAN (R),R,LOCAL GOVERNMENT,CITY OF FREDERICKSBURG/SPOTSYLVANIA COUNTY,1971,,N,HIGH,Y,Y,Y,Y,96.5,7700,715,,10.3,"MARTIN, CLIFFORD & ASSOC.70/GANNETT-FLEMING, INC00",Y,0,Y,DCR,,,,,,,VA,,0,-77.5433,38.3133
VA04702,MOUNTAIN RUN DAM #11,2011-09-20,2013-03-12,MOUNTAIN RUN,CULPEPER,CULPEPER,VA,VA07,ERIC CANTOR (R),R,LOCAL GOVERNMENT,TOWN OF CULPEPER,1959,,N,SIGNIFICANT,Y,Y,Y,Y,44,2880,722,2250,5.9,USDA NRCS,Y,0,Y,DCR,53600,USDA NRCS,USDA NRCS,USDA NRCS,,,VA,,0,-78.0683,38.4783
VA13705,NEALS DAM,,2013-03-12,BARBOUR RUN,OLD SOMERSET,ORANGE,VA,VA07,ERIC CANTOR (R),R,NOT LISTED,"O. BRUCE GUPTON, JR.",1946,,N,,Y,Y,Y,Y,20,80,325,,,,NR,0,Y,DCR,,,USDA NRCS,,,,VA,,0,-78.1933,38.1733
VA17701,NI RIVER DAM #1,2008-05-29,2013-03-12,NI RIVER,SPOTSYLVANIA,SPOTSYLVANIA,VA,VA07,ERIC CANTOR (R),R,LOCAL GOVERNMENT,SPOTSYLVANIA COUNTY,1972,,N,SIGNIFICANT,Y,Y,Y,Y,50.89,24873,1750,28748,24.4,HARZA ENGINEERING COMPANY,Y,0,Y,DCR,217820,USDA NRCS,USDA NRCS,USDA NRCS,,,VA,,0,-77.5966,38.2466
VA05105,NICEWONDER DAM,2006-09-11,2013-03-12,TRIB-POUND RIVER,ISOM,DICKENSON,VA,VA09,H. MORGAN GRIFFITH (R),R,PRIVATE,MIKE AND GWEN YATES,1960,,N,LOW,Y,Y,Y,Y,40,133,350,,0.1,,NR,0,Y,DCR,,,,,,,VA,,0,-82.4966,37.18
VA01920,OLD BEDFORD CITY DAM,,2013-03-12,STONY CREEK,KELSO MILL,BEDFORD,VA,VA06,BOB GOODLATTE (R),R,NOT LISTED,CITY OF BEDFORD,1900,,N,SIGNIFICANT,N,N,N,N,30,50,,,,,N,0,N,DCR,,,,,,,VA,,0,-79.5516,37.4416
VA03323,OLD GRAYS DAM,,2013-03-12,MAYS RUN,MILFORD,CAROLINE,VA,VA01,ROBERT J. WITTMAN (R),R,PRIVATE,GEORGE E. NEWSOME,1850,,N,LOW,Y,Y,Y,Y,14,179,800,,,,NR,0,Y,DCR,,,,,,,VA,,0,-77.421,38.0315
VA15307,OMISOL DAM,2008-07-15,2013-03-12,HOOES RUN,OCCOQUAN,PRINCE WILLIAM,VA,VA11,GERALD E. CONNOLLY (D),D,PRIVATE,OMISOL HOME OWNERS ASSOCIATION,1940,,N,LOW,Y,Y,Y,Y,21.1,156.4,250,,5.21,,Y,0,Y,DCR,,,,,,,VA,,0,-77.3,38.6733
VA01901,PEAKS OF OTTER DAM 1-K MI.85.5,2003-09-23,2013-02-27,LITTLE STONEY CREEK,KELSO MILL,BEDFORD,VA,VA06,BOB GOODLATTE (R),R,FEDERAL,DOI NPS,1964,2007,N,,N,N,N,N,34,240,350,1300,0,,Y,0,N,,6400,DOI NPS,USDA NRCS,,DOI NPS,DOI BR,DOI NPS,,0,-79.6,37.45
VA05907,POHICK CREEK DAM #8,2011-04-22,2013-03-12,MIDDLE RUN,FORT BELVOIR,FAIRFAX,VA,VA10,FRANK R. WOLF (R),R,LOCAL GOVERNMENT,FAIRFAX COUNTY BOARD OF SUPERVISORS,1973,,N,HIGH,Y,Y,Y,Y,45.39,1740,700,7878,2.33,USDA NRCS,Y,0,Y,DCR,76060,USDA NRCS,USDA NRCS,USDA NRCS,,,VA,,0,-77.2566,38.7533
VA08503,POLLARDS DAM,,2013-03-12,TR-SOUTH ANNA RIVER,HANOVER COUNTRY CLUB,HANOVER,VA,VA07,ERIC CANTOR (R),R,PRIVATE,THE HOLLOWS CORP.,1960,,N,LOW,Y,Y,Y,Y,19,62,300,,,,N,0,Y,DCR,,,,,,,VA,,0,-77.595,37.7866
DE00016,RED MILL POND DAM,2012-04-13,2013-02-04,MARTIN BRANCH,LEWES   E,SUSSEX,DE,DE00,JOHN C. CARNEY JR. (D),D,STATE,DELDOT,1925,,N,SIGNIFICANT,Y,Y,Y,Y,11.77,636,630,636,6.54,,N,1,Y,DNREC,,,,,,,DE,,0,-75.2047,38.7608
VA03712,ROANOKE CREEK DAM # 31B,2010-06-28,2013-03-12,EAST BRANCH OF WARDS FORK,CHARLOTTE COURT HOUSE,CHARLOTTE,VA,VA05,ROBERT HURT (R),R,LOCAL GOVERNMENT,SOUTHSIDE SWCD,1967,,N,LOW,Y,Y,Y,Y,29.6,1718,650,2430,4.7,USDA NRCS,Y,0,Y,DCR,38630,USDA NRCS,USDA NRCS,USDA NRCS,,,VA,,0,-78.6216,37.1266
VA06103,SAWYER DAM,,2013-03-12,BUCK RUN,CRESTHILL,FAUQUIER,VA,VA05,ROBERT HURT (R),R,PRIVATE,VALHALLA FARM LLC,1960,,N,SIGNIFICANT,Y,Y,Y,Y,20,258,276,,,,N,0,Y,DCR,,,,,,,VA,,0,-78.025,38.8233
VA05706,SCOTTS MILLPOND DAM,,2013-03-12,HOSKINS CREEK,TAPPAHANNOCK,ESSEX,VA,VA01,ROBERT J. WITTMAN (R),R,PRIVATE,LOUIS MARX JR.,1850,,N,SIGNIFICANT,N,N,N,N,17,42,300,,19.8,,N,0,N,DCR,,,,,,,VA,,0,-76.9,37.9266
MD00134,SIMKINS INDUSTRY DAM,2011-07-08,2013-02-04,PATAPSCO RIVER,ELKRIDGE,BALTIMORE,MD,MD07,ELIJAH E. CUMMINGS (D),D,PRIVATE,SIMKINS INDUSTRIES,1900,2010,N,LOW,Y,Y,Y,Y,20,3560,293,82200,300.5,,NR,5,Y,MD DAM SAFETY,,,,,,,MD,,0,-76.7689,39.2523
VA01523,SMITHLEIGH DAM,,2013-03-12,MIDDLE RIVER,WEST VIEW,AUGUSTA,VA,VA06,BOB GOODLATTE (R),R,NOT LISTED,"HENDERSON, FRANK & MARGARET",1968,,N,SIGNIFICANT,Y,Y,Y,Y,22,306,510,,25,,N,0,Y,DCR,,,,,,,VA,,0,-79.2133,38.1533
MD00111,SOIL CONSERVATION SERVICE LAKE,2009-08-11,2013-02-04,BECK BRANCH,BERWYN HEIGHTS,PRINCE GEORGES,MD,MD05,STENY H. HOYER (D),D,FEDERAL,USDA NRCS,1939,1939,N,,Y,Y,Y,Y,17,176,250,781,2.5,USDA,NR,5,Y,MD DAM SAFETY,,,,,,,MD,,0,-76.8511,39.0135
VA01504,SOUTH RIVER DAM #10A,2011-10-12,2013-03-12,MILLS CREEK,SHERANDO,AUGUSTA,VA,VA06,BOB GOODLATTE (R),R,LOCAL GOVERNMENT,AUGUSTA COUNTY,1963,,N,HIGH,Y,Y,Y,Y,97.5,1235,715,7120,3.7,USDA NRCS,Y,0,Y,DCR,249420,USDA NRCS,USDA NRCS,USDA NRCS,,,VA,,0,-79.0016,37.9516
MD00100,ST. PAULS MILLPOND,2012-03-23,2013-02-04,"WEST FORK, LANGFORD CREEK",MCKINLEYVILLE,KENT,MD,MD01,ANDY HARRIS (R),R,PRIVATE,CHESAPEAKE FARMS COMPANY,,"1990,HS",N,SIGNIFICANT,Y,Y,Y,Y,15,166,700,300,3.2,"RICH PERIN, CONSOLIDATION COAL",Y,3,Y,MD DAM SAFETY,,,,,,,MD,,0,-76.1786,39.1855
VA01904,STONEY CREEK RESERVOIR DAM (BEDFORD),2010-01-28,2013-03-12,STONY CREEK,KELSO MILL,BEDFORD,VA,VA06,BOB GOODLATTE (R),R,LOCAL GOVERNMENT,CITY OF BEDFORD,1958,,N,SIGNIFICANT,Y,Y,Y,Y,54,760,550,,6.02,WILEY & WILSON,Y,0,Y,DCR,,,,,,,VA,,0,-79.55,37.4433
VA17102,STONY CREEK DAM #10,2010-08-25,2013-03-12,ALUM RUN,JEROME,SHENANDOAH,VA,VA06,BOB GOODLATTE (R),R,LOCAL GOVERNMENT,LORD FAIRFAX SWCD,1971,,Y,HIGH,Y,Y,Y,Y,72,1910,601,17581,4.6,USDA NRCS,Y,0,Y,DCR,219030,USDA NRCS,USDA NRCS,USDA NRCS,,,VA,,0,-78.7733,38.8166
DE00046,SUNSET LAKE DAM,1978-10-26,2013-02-04,MUDDY RUN,GLASGOW,NEW CASTLE,DE,DE00,JOHN C. CARNEY JR. (D),D,PRIVATE,NEWARK ANGLERS ASSOCIATION,1900,,N,SIGNIFICANT,N,N,N,N,13.28,553,290,259.1,8.2,,NR,0,N,,,,,,,,DE,,0,-75.7246,39.6247
VA01925,SWAN LAKE DAM,2008-04-23,2013-03-12,TRIB - IVY CREEK,LYNCHBURG,BEDFORD,VA,VA06,BOB GOODLATTE (R),R,PRIVATE,FOREST LAKES POA,1989,,N,SIGNIFICANT,Y,Y,Y,Y,32,425,400,,2.1,BERKLY-HOWELL&ASSOCIATES,Y,0,Y,DCR,,,,,,,VA,,0,-79.2583,37.3833
VA15705,SWEENY DAM,,2013-03-12,TR-THORTON RIVER,VIENTOWN,RAPPAHANNOCK,VA,VA05,ROBERT HURT (R),R,PRIVATE,JEFFREY L. & EILEEN R. KELLY,1970,,N,LOW,Y,Y,Y,Y,18,58,270,,,,NR,0,Y,DCR,,,,,,,VA,,0,-78.0133,38.6683
DE00056,SWIGGETTS POND DAM,2012-05-10,2013-02-04,CEDAR CREEK,MILFORD  NW,SUSSEX,DE,DE00,JOHN C. CARNEY JR. (D),D,STATE,DELDOT,1941,,N,SIGNIFICANT,Y,Y,Y,Y,11.57,920,800,1330,11.29,,N,1,Y,DNREC,,,,,,,DE,,0,-75.3773,38.8691
DE00089,TAILINGS POND NO. 2 DAM GETTY OIL,,2013-02-04,DELAWARE RIVER-OS,DELAWARE CITY,NEW CASTLE,DE,DE00,JOHN C. CARNEY JR. (D),D,PRIVATE,VALERO ENERGY CORPORATION,1960,,N,LOW,N,N,N,N,15,300,1100,,,,NR,0,N,,,,,,,,DE,,0,-75.61,39.595
DE00090,TAILINGS POND NO. 3 DAM GETTY OIL,,2013-02-04,DELAWARE RIVER-OS,DELAWARE CITY,NEW CASTLE,DE,,,,PRIVATE,VALERO ENERGY CORPORATION,1960,,N,LOW,N,N,N,N,20,10000,16000,,,,NR,0,N,,,,,,,,DE,,0,-75.5966,39.5866
VA01505,UPPER NORTH RIVER DAM #10,2011-10-12,2013-03-12,SKIDMORE CREEK,STOKESVILLE,AUGUSTA,VA,VA06,BOB GOODLATTE (R),R,LOCAL GOVERNMENT,HEADWATERS SWCD,1963,0,Y,LOW,Y,Y,Y,Y,69,865,734,6550,4.1,USDA NRCS,Y,0,Y,DCR,301000,USDA NRCS,USDA NRCS,USDA NRCS,,,VA,,0,-79.2083,38.3666
MD00084,URBANA,2010-03-10,2013-02-04,TR-BENNETT CREEK,PARK MILLS,FREDERICK,MD,MD06,JOHN K. DELANEY (D),D,STATE,MD DNR-FISHERIES ADMINISTRATION,1963,"2001,S",N,LOW,Y,Y,Y,Y,25,81,325,1567,0.5,USDA NRCS,NR,5,Y,MD DAM SAFETY,1,,USDA NRCS,,,,MD,,0,-77.3406,39.3005
MD00024,URIEVILLE DAM,2010-05-05,2013-02-04,TR-MORGAN CREEK,CHESTER ESTATES,KENT,MD,MD01,ANDY HARRIS (R),R,STATE,"MD DNR-PUBLIC LANDS, ENGINEERING & CONSTR-EASTERN",1955,1955,N,LOW,Y,Y,Y,Y,17,477,600,1750,8.5,MD STATE HIGHWAY ADMIN.,NR,5,Y,MD DAM SAFETY,,,,,,,MD,,0,-76.0247,39.2789
VA00102,VA TRUCK EXPERIMENTAL STATION DAM,,2013-03-12,TR-OCCOHANNOCK CREEK,DAVIS WHARF,ACCOMACK,VA,VA02,E. SCOTT RIGELL (R),R,STATE,VPI&SU EAST SHORE AGRI. STATION,1954,,N,LOW,Y,Y,Y,Y,9,195,365,,,,NR,0,Y,DCR,2598,,USDA NRCS,,,,VA,,0,-75.8216,37.5833
VA13508,VPI DAM,1995-09-14,2013-02-27,UNKNOWN,,NOTTOWAY,VA,VA04,J. RANDY FORBES (R),R,FEDERAL,FORT PICKETT,1974,,N,,N,N,N,N,26,238,800,,,UNKNOWN,N,0,N,DCR,,DOD USA,DOD USA,DOD USA,DOD USA,DOD USA,DOD USA,,0,-77.955,37.0966
VA11301,WHITE OAK DAM #1,2011-04-05,2013-03-12,WHITE OAK RUN,MADISON,MADISON,VA,VA05,ROBERT HURT (R),R,LOCAL GOVERNMENT,RAPIDAN SERVICE AUTHORITY,1965,,N,SIGNIFICANT,Y,Y,Y,Y,64,2323,500,10200,5.1,USDA NRCS,Y,0,Y,DCR,106110,USDA NRCS,USDA NRCS,USDA NRCS,,,VA,,0,-78.31,38.3783
VA02919,WILLIS RIVER DAM #2,2011-11-09,2013-03-12,TR-TONGUE QUARTER CREEK,CURDSVILLE,BUCKINGHAM,VA,VA05,ROBERT HURT (R),R,LOCAL GOVERNMENT,PETER FRANCISCO SWCD,1975,,N,LOW,Y,Y,Y,Y,46.29,2730,660,4356,9.3,USDA NRCS,Y,0,Y,DCR,100060,USDA NRCS,USDA NRCS,USDA NRCS,,,VA,,0,-78.485,37.4516
VA02908,WILLIS RIVER DAM #6A,2011-11-10,2013-03-12,LITTLE WILLIS RIVER,CURDSVILLE,BUCKINGHAM,VA,VA05,ROBERT HURT (R),R,LOCAL GOVERNMENT,PETER FRANCISCO SWCD,1973,,N,LOW,Y,Y,Y,Y,33.1,1036,496,3850,2.98,USDA NRCS,Y,0,Y,DCR,26000,USDA NRCS,USDA NRCS,USDA NRCS,,,VA,,0,-78.5116,37.4066
VA02910,WILLIS RIVER DAM #9,2011-11-15,2013-03-12,PAYNE CREEK,CA IRA,BUCKINGHAM,VA,VA05,ROBERT HURT (R),R,LOCAL GOVERNMENT,PETER FRANCISCO SWCD,1969,,N,LOW,Y,Y,Y,Y,36.29,590,340,1400,2.5,USDA NRCS,Y,0,Y,DCR,24730,USDA NRCS,USDA NRCS,USDA NRCS,,,VA,,0,-78.3733,37.4766
VA17104,WOODSTOCK DAM,2008-01-23,2013-03-12,LITTLE STONY CREEK,COLUMBIA FURNACE,SHENANDOAH,VA,VA06,BOB GOODLATTE (R),R,LOCAL GOVERNMENT,TOWN OF WOODSTOCK,1957,,Y,HIGH,Y,Y,Y,Y,44,102,388,16550,7,,Y,0,Y,DCR,,,USDA NRCS,,USDA FS,,VA,,0,-78.6566,38.9183
VA09306,WRENNS DAM,,2013-03-12,PAGAN RIVER,SMITHFIELD,ISLE OF WIGHT,VA,VA04,J. RANDY FORBES (R),R,PRIVATE,E. CARTER NETTLES,1900,,N,SIGNIFICANT,Y,Y,Y,Y,14,172,,,,,N,0,Y,DCR,,,,,,,VA,,0,-76.6716,37.0233
VA14310,YOGI BEAR CAMPGROUND,,2013-03-12,TR-SANDY CREEK,ST RT 662,PITTSYLVANIA,VA,VA05,ROBERT HURT (R),R,PRIVATE,"HOWARD B. LESTER, III",1960,,N,LOW,Y,Y,Y,Y,22,149,,,,,NR,0,Y,DCR,,,,,,,VA,,0,-79.3383,36.705
VA13511,BIRCHIN LAKE DAM,1995-09-11,2013-02-27,UNKNOWN,,NOTTOWAY,VA,VA04,J. RANDY FORBES (R),R,FEDERAL,FORT PICKETT,1942,,N,,N,N,N,N,15,367,500,,6,UNKNOWN,N,0,N,DCR,9633,DOD USA,DOD USA,DOD USA,DOD USA,DOD USA,DOD USA,,0,-77.9066,37.035
VA10106,LAFFERTY DAM NO. 1,,2013-03-12,HARRISONS CREEK,WEST POINT,KING WILLIAM,VA,VA01,ROBERT J. WITTMAN (R),R,PRIVATE,EDGAR LAFFERTY,1900,,N,LOW,Y,Y,Y,Y,15,138,,,,,NR,0,Y,DCR,,,,,,,VA,,0,-77.0333,37.6
VA05313,TOMMEHETON LAKE DAM,1995-09-11,2013-02-27,UNKNOWN,,DINWIDDIE,VA,VA04,J. RANDY FORBES (R),R,FEDERAL,FORT PICKETT,1942,,N,,N,N,N,N,25,557,450,,17,UNKNOWN,N,0,N,DCR,,DOD USA,DOD USA,DOD USA,DOD USA,DOD USA,DOD USA,,0,-77.86,37.0333
VA10105,OLD TOWN FARM DAM,,2013-03-12,TR-WILLIAMS CREEK,WEST POINT,KING WILLIAM,VA,VA01,ROBERT J. WITTMAN (R),R,PRIVATE,W. H. HARRELL,1900,,N,LOW,Y,Y,Y,Y,12,55,350,,,,NR,0,Y,DCR,,,,,,,VA,,0,-77.0073,37.5948
VA18505,UPPER CLINCH VALLEY DAM #1B,2008-08-28,2013-03-12,CAVITTS CREEK,RIVER JACK,TAZEWELL,VA,VA09,H. MORGAN GRIFFITH (R),R,LOCAL GOVERNMENT,TAZEWELL COUNTY,1988,0,N,HIGH,Y,Y,Y,Y,75.5,2320,460,15060,2.57,BENATEC ASSOCIATES,Y,0,Y,DCR,220210,USDA NRCS,USDA NRCS,USDA NRCS,,,VA,,0,-81.5216,37.165
VA02914,HORSEPEN CREEK DAM,2012-03-07,2013-03-12,HORSEPEN CREEK,BUCKINGHAM,BUCKINGHAM,VA,VA05,ROBERT HURT (R),R,STATE,VA DEPARTMENT OF GAME & INLAND FISHERIES,1935,,N,LOW,Y,Y,Y,Y,35,730,250,,2.96,,Y,0,Y,DCR,,,,,,,VA,,0,-78.5533,37.51
MD00058,HUNTING CREEK DAM,2012-05-29,2013-02-04,HUNTING CREEK,THURMONT,FREDERICK,MD,MD08,CHRIS VAN HOLLEN (D),D,STATE,"MD DNR-PUBLIC LANDS, ENGINEERING & CONSTR-WESTERN",1969,1969,N,HIGH,Y,Y,Y,Y,79,1263,787,33400,6.9,BUCHART HORN,Y,1,Y,MD DAM SAFETY,,,,,,,MD,,0,-77.4565,39.6278
VA14909,INDIAN SWAMP,,2013-03-12,TR-ROWANTY CREEK,US ROUTE 301,PRINCE GEORGE,VA,VA04,J. RANDY FORBES (R),R,PRIVATE,INDIAN SWAMP CORP.,1820,,N,LOW,Y,Y,Y,Y,10,52,,,,,NR,0,Y,DCR,,,,,,,VA,,0,-77.3783,37.0233
VA18326,JENKINS DAM,,2013-03-12,TR-SEACOCK SWAMP,WAKEFIELD,SUSSEX,VA,VA04,J. RANDY FORBES (R),R,PRIVATE,S. JENKINS,1955,,N,LOW,Y,Y,Y,Y,12,54,,,,,NR,0,Y,DCR,,,,,,,VA,,0,-77.0383,36.965
VA14106,JIM BOAZ DAM,,2013-03-12,TR-SOUTH MAYO RIVER,VA ST RD 653,PATRICK,VA,VA09,H. MORGAN GRIFFITH (R),R,NOT LISTED,JAMES BOAZ,1973,,N,,Y,Y,Y,Y,28,43,230,73,,,NR,0,Y,DCR,15000,,USDA NRCS,,,,VA,,0,-80.1966,36.6216
VA04502,JOHNS CREEK DAM #1,2006-11-02,2013-03-12,JOHNS CREEK,MAGGIE,CRAIG,VA,VA09,H. MORGAN GRIFFITH (R),R,LOCAL GOVERNMENT,MOUNTAIN CASTLES SWCD,1967,,Y,HIGH,Y,Y,Y,Y,62,3759,1500,9390,18.05,USDA NRCS,Y,0,Y,DCR,382250,USDA NRCS,USDA NRCS,USDA NRCS,,,VA,,0,-80.43,37.4
VA18325,JOHNSON DAM,,2013-03-12,TR-JOSEPHS SWAMP,ST RT 626,SUSSEX,VA,VA04,J. RANDY FORBES (R),R,PRIVATE,C. JOHNSON,1965,,N,,Y,Y,Y,Y,13,52,289,90,,,NR,0,Y,DCR,3297,,USDA NRCS,,,,VA,,0,-77.2566,37.03
VA07504,KILLERNEY DAM,,2013-03-12,TRIB. BIG LICKINGHOLE CREEK,EAST LEAKE,GOOCHLAND,VA,VA07,ERIC CANTOR (R),R,PRIVATE,THOMAS KNOX LIVELY,1969,,N,,Y,Y,Y,Y,24,234,420,,,,N,0,Y,DCR,22997,,USDA NRCS,,,,VA,,0,-77.9768,37.832
VA07525,LAKE DILLON DAM,1997-09-03,2013-03-12,POWDER RUN CREEK,VA STATE ROUTE-6,GOOCHLAND,VA,VA07,ERIC CANTOR (R),R,PRIVATE,"B.S.A., ROBERT E. LEE COUNCIL",1983,,N,LOW,Y,Y,Y,Y,31,600,450,,0.47,"R.A. STRAWBRIDGE, INC.",Y,0,Y,DCR,,,,,,,VA,,0,-77.8666,37.675
VA05910,LAKE FAIRFAX DAM,2011-07-08,2013-03-12,COLVIN RUN,FAIRVIEW,FAIRFAX,VA,VA11,GERALD E. CONNOLLY (D),D,LOCAL GOVERNMENT,FAIRFAX COUNTY PARK AUTHORITY,1956,,N,SIGNIFICANT,Y,Y,Y,Y,32,487,500,,4.3,"FOUNDATION ENGINEERING OF VA, P.C.",Y,0,Y,DCR,,,,,,,VA,,0,-77.3166,38.9666
MD00091,LAKE OF THE PINES,2011-06-16,2013-02-04,TARNANS BRANCH,BON HAVEN,ANNE ARUNDEL,MD,MD04,DONNA F. EDWARDS (D),D,LOCAL GOVERNMENT,ANNE ARUNDEL COUNTY PACE,1981,"1994,S PIPE JOINTS REPAIRED",N,SIGNIFICANT,Y,Y,Y,Y,22,106,313,1040,1,"MC CRONE, INC",Y,3,Y,MD DAM SAFETY,,,,,,,MD,,0,-76.6377,38.9668
MD00186,LAKE RIDGE COMMUNITY POND DAM,2010-06-02,2013-02-04,TR-FISHING CREEK,CHESAPEAKE BEACH,CALVERT,MD,MD05,STENY H. HOYER (D),D,PRIVATE,"EDWARD B. HOWLIN, INC.",1969,"2001,S",N,SIGNIFICANT,Y,Y,Y,Y,28,154,285,38,0.3,USDA NRCS,N,3,Y,MD DAM SAFETY,1,,USDA NRCS,,,,MD,,0,-76.577,38.6604
VA05106,LAUREL LAKE DAM,2006-01-31,2013-03-12,LAUREL BRANCH,"ELKHORN CITY, KY",DICKENSON,VA,VA09,H. MORGAN GRIFFITH (R),R,STATE,BREAKS INTERSTATE PARK COMMISSION,1963,,N,LOW,Y,Y,Y,Y,43,231,290,,0.11,,Y,0,Y,DCR,,,,,,,VA,,0,-82.2983,37.2883
VA14317,LAYTON BACON DAM,,2013-03-12,TR-SANDY RIVER,STONY MILL,PITTSYLVANIA,VA,VA05,ROBERT HURT (R),R,PRIVATE,SYED A. AHMED,1976,,N,,N,N,N,N,33,76,400,17100,,,NR,0,N,DCR,68660,,USDA NRCS,,,,VA,,0,-79.58,36.6416
VA02702,LONG BOTTOM BRANCH DAM,,2013-03-12,LONG BOTTOM BRANCH,BLACKEY,BUCHANAN,VA,VA09,H. MORGAN GRIFFITH (R),R,NOT LISTED,EASTERN COAL COMPANY,1955,,N,SIGNIFICANT,N,N,N,N,33,16,,,,,N,0,N,DCR,,,,,,,VA,,0,-81.9616,37.4
VA14502,LOWER POWHATAN DAM,,2013-03-12,STEGERS CREEK,ST EMMA MILITARY ACADEMY,POWHATAN,VA,VA04,J. RANDY FORBES (R),R,STATE,VA DEPARTMENT OF GAME & INLAND FISHERIES,1932,,N,LOW,Y,Y,Y,Y,19,305,,,,,NR,0,Y,DCR,,,,,,,VA,,0,-78,37.5766
VA08504,LUCKS DAM,,2013-03-12,TR-FALLING CREEK,ASHLAND MILL,HANOVER,VA,VA07,ERIC CANTOR (R),R,PRIVATE,CABELL LUCK,1969,,N,,Y,Y,Y,Y,14,78,276,141,,,NR,0,Y,DCR,4720,,USDA NRCS,,,,VA,,0,-77.505,37.7716
VA11104,LUNENBURG BEACH DAM,2011-11-04,2013-03-12,BIG HOUND CREEK,ST RT 652,LUNENBURG,VA,VA05,ROBERT HURT (R),R,LOCAL GOVERNMENT,TOWN OF VICTORIA,1920,,N,LOW,Y,Y,Y,Y,22,113,361,,0.34,UNKNOWN,Y,0,Y,DCR,,,,,,,VA,,0,-78.21,36.9933
VA14905,MANNS DAM,,2013-03-12,WARDS CREEK,BURROWSVILLE,PRINCE GEORGE,VA,VA03,ROBERT C. ???BOBBY??? SCOTT (D),D,PRIVATE,ELSIE CRUEY,1910,,N,LOW,Y,Y,Y,Y,10,120,,,,,NR,0,Y,DCR,,,,,,,VA,,0,-77.11,37.1933
MD00115,MASON DIXON ORIGINAL SETTLING POND,2012-10-18,2013-02-04,OFFSTREAM-TR-PRINCIPIO CREEK,PRINCIPIO FURNANCE,CECIL,MD,MD01,ANDY HARRIS (R),R,PRIVATE,"YORK BUILDING PRODUCTS CO, INC.",1966,"1995,S",N,LOW,Y,Y,Y,Y,52,386,1390,44,0.1,GEO-TECHNOLOGY ASSOCIATES GTA,NR,5,Y,MD DAM SAFETY,,,,,,,MD,,0,-76.016,39.5803
MD00052,MASON-DIXON WATER SUPPLY POND,2008-12-08,2013-02-04,TR-PRINCIPIO CREEK-DARK RUN,PRINCIPIO FURNACE,CECIL,MD,MD01,ANDY HARRIS (R),R,PRIVATE,"YORK BUILDING PRODUCTS CO, INC.",1966,1966,N,SIGNIFICANT,Y,Y,Y,Y,67,255,785,8188,0.9,JAMES H. LUDLOW ASSOC.,NR,5,Y,MD DAM SAFETY,,,,,,,MD,,0,-76.0316,39.615
VA08539,MATTAWAN DAM,2009-05-31,2013-03-12,TR-TOTOPOTOMY CREEK,VA STATE ROUTE-606,HANOVER,VA,VA07,ERIC CANTOR (R),R,PRIVATE,JAMES AND KAREN WHITE,1951,,N,LOW,Y,Y,Y,Y,26,170,100,,0.9,"JOHN HUTCHERSON, VA P.E. #007753",Y,0,Y,DCR,,,,,,,VA,,0,-77.3233,37.6566
MD00171,MC ALLISTER POND NO. 1,2009-06-22,2013-02-04,TR-KERRICK SWAMP,ROGERS MILL,CHARLES,MD,MD05,STENY H. HOYER (D),D,PRIVATE,THOMAS H POSEY,1967,2008E,N,LOW,Y,Y,Y,Y,22,52,350,70,0.2,USDA NRCS,NR,5,Y,MD DAM SAFETY,16750,,USDA NRCS,,,,MD,,0,-76.924,38.5399
VA16304,MOORE'S CREEK DAM,2010-06-10,2013-03-12,MOORE CREEK,OAKDALE,ROCKBRIDGE,VA,VA06,BOB GOODLATTE (R),R,LOCAL GOVERNMENT,CITY OF LEXINGTON,1900,,N,HIGH,Y,Y,Y,Y,90,1295,950,,2.11,,Y,0,Y,DCR,,,,,,,VA,,0,-79.645,37.7466
DE00032,MOORES LAKE DAM,2012-06-20,2013-02-04,ISAAC BRANCH,DOVER AIR FORCE BASE,KENT,DE,DE00,JOHN C. CARNEY JR. (D),D,STATE,DELDOT; DNREC DFW,1967,,N,SIGNIFICANT,Y,Y,Y,Y,14.02,446,410,2057,14.17,,N,1,Y,DNREC,,,,,,,DE,,0,-75.5184,39.126
VA05103,MOSS #1 FRESH WATER SUPPLY DAM,,2013-03-12,LICK FORK,CLINTWOOD CHURCH,DICKENSON,VA,VA09,H. MORGAN GRIFFITH (R),R,PRIVATE,CLINCHFIELD COAL COMPANY,1955,,N,SIGNIFICANT,N,N,N,N,65,525,,,,,N,0,N,DCR,,,,,,,VA,,0,-82.53,37.125
VA05102,MOSS MINE #1 DAM,,2013-03-12,LICK FORK,CLINTWOOD,DICKENSON,VA,VA09,H. MORGAN GRIFFITH (R),R,PRIVATE,CLINCHFIELD COAL COMPANY,1955,,N,SIGNIFICANT,N,N,N,N,154,1314,,,,,N,0,N,DCR,,,,,DOL MSHA,DOL MSHA,VA,,0,-82.53,37.1166
VA04705,MOUNTAIN RUN DAM #13,2011-03-02,2013-03-12,HUNGRY RUN,CULPEPER,CULPEPER,VA,VA07,ERIC CANTOR (R),R,LOCAL GOVERNMENT,CULPEPER SWCD,1960,,N,LOW,Y,Y,Y,Y,30.5,1140,940,1700,3.2,USDA NRCS,Y,0,Y,DCR,51120,USDA NRCS,USDA NRCS,USDA NRCS,,,VA,,0,-78.04,38.4516
MD00074,NAGELS MILL POND,2010-01-27,2013-02-04,FOWLING CREEK,TODD WHARF,CAROLINE,MD,MD01,ANDY HARRIS (R),R,PRIVATE,"NAGEL FARM SERVICE, INC.",,"2000,O",N,SIGNIFICANT,Y,Y,Y,Y,16,175,450,472,5.6,USDA NRCS-ANN BALDWIN (MOD),Y,3,Y,MD DAM SAFETY,,,,,,,MD,,0,-75.8729,38.7778
VA12501,NELSON DAM,2012-03-09,2013-03-12,TR-BOBS CREEK,VARIETY MILLS,NELSON,VA,VA05,ROBERT HURT (R),R,STATE,VA DEPARTMENT OF GAME & INLAND FISHERIES,1959,,N,SIGNIFICANT,Y,Y,Y,Y,42,920,738,,1.24,,Y,0,Y,DCR,,,,,,,VA,,0,-78.88,37.6933
VA01913,OLD ELKTON LAKE DAM,,2013-03-12,TR-ELK CREEK,ST.RT.622,BEDFORD,VA,VA06,BOB GOODLATTE (R),R,NOT LISTED,ROYCE H & KATHLEEN HUSTED,1900,,N,LOW,Y,Y,Y,Y,15,141,,,,,NR,0,Y,DCR,,,,,,,VA,,0,-79.32,37.3616
VA03504,OLDE MILL GOLF CLUB DAM,2000-03-16,2013-03-12,STONE MOUNTAIN CREEK,VA STATE ROUTE 638,CARROLL,VA,VA09,H. MORGAN GRIFFITH (R),R,PRIVATE,OLDE MILL LAND L.P.,1972,,N,LOW,Y,Y,Y,Y,30,605,526,,6.7,J. A. GUSTIN & ASSOC.,Y,0,Y,DCR,,,,,,,VA,,0,-80.5233,36.69
VA10101,OLSSONS DAM,,2013-03-12,HERRICK CREEK,WEST POINT,KING WILLIAM,VA,VA01,ROBERT J. WITTMAN (R),R,PRIVATE,STURE OLSSON,1932,,N,LOW,Y,Y,Y,Y,9,785,,,,,NR,0,Y,DCR,,,,,,,VA,,0,-76.8333,37.5566
MD00350,PIEDMONT WATER SUPPLY INTAKE DAM,2010-12-16,2013-02-04,SAVAGE RIVER,BLOOMINGTON,GARRETT,MD,MD06,JOHN K. DELANEY (D),D,LOCAL GOVERNMENT,"TOWN OF PIEDMONT, WV",1911,"1998,S",N,,Y,Y,Y,Y,8,60,118,,120,UNKNOWN,NR,5,Y,MD DAM SAFETY,,,,,,,MD,,0,-79.1146,39.5008
MD00196,POCOMOKE CITY SEWAGE LAGOON NO.1,2011-05-06,2013-02-04,OFFSTREAM-TR-UNION BRANCH,PUNCHEON LANDING,WORCESTER,MD,MD01,ANDY HARRIS (R),R,LOCAL GOVERNMENT,POCOMOKE CITY,1972,1972,N,LOW,Y,Y,Y,Y,10,250,5400,10,0.1,"RUMMEL, KLEPPER AND KAHL",NR,5,Y,MD DAM SAFETY,,,,,,,MD,,0,-75.5666,38.0516
MD00197,POCOMOKE CITY SEWAGE LAGOON NO.2,2011-05-06,2013-02-04,OFFSTREAM-TR-UNION BRANCH,PUNCHEON LANDING,WORCESTER,MD,MD01,ANDY HARRIS (R),R,LOCAL GOVERNMENT,POCOMOKE CITY,1972,1972,N,LOW,Y,Y,Y,Y,10,265,5500,10,0.1,"RUMMEL, KLEPPER AND KAHL",NR,5,Y,MD DAM SAFETY,,,,,,,MD,,0,-75.565,38.0483
VA01914,POPLAR FOREST DAM,,2013-03-12,TR-TOMAHAWK CREEK,N&W RR,BEDFORD,VA,VA06,BOB GOODLATTE (R),R,NOT LISTED,POPLAR FOREST ASSOCIATES,1973,,N,LOW,Y,Y,Y,Y,22,62,500,865,,,NR,0,Y,DCR,15670,,USDA NRCS,,,,VA,,0,-79.27,37.3483
MD00078,POTOMAC RIVER DAM #4,2003-04-23,2013-02-27,POTOMAC RIVER,"MERCERSVILLE, MD",WASHINGTON,MD,MD06,JOHN K. DELANEY (D),D,FEDERAL,US DOI NPS C&O CANAL NAT HIST PARK,1869,1994,N,SIGNIFICANT,Y,Y,Y,Y,20,111600,715,1000000,5900,CHESAPEAKE & OHIO CANAL CO,N,3,Y,MD DAM SAFETY,,DOI NPS,,,DOI NPS,DOI BR,DOI NPS,,0,-77.8273,39.4941
VA81005,RADFORD,2012-09-18,2013-02-28,LITTLE RIVER,RADFORD,MONTGOMERY,VA,VA09,H. MORGAN GRIFFITH (R),R,LOCAL GOVERNMENT,RADFORD CITY OF,1934,,N,HIGH,N,N,N,N,52,1600,293,1590,351,,Y,1,N,,,,,,FERC,FERC,FERC,,1,-80.5728,37.0784
VA14503,REDFORD DAM,,2013-03-12,HORSEPEN  BRANCH OF DEEP CREEK,ST EMMA MILITARY ACADEMY,POWHATAN,VA,VA04,J. RANDY FORBES (R),R,PRIVATE,T. C. REDFORD,1948,,N,LOW,Y,Y,Y,Y,13,426,600,,,,NR,0,Y,DCR,,,,,,,VA,,0,-78.0288,37.5906
MD00131,RISING SUN WASTE WATER LAGOON,2012-10-18,2013-02-04,OFFSTREAM-STONE RUN,RICHARDSMERE,CECIL,MD,MD01,ANDY HARRIS (R),R,LOCAL GOVERNMENT,CITY OF RISING SUN,1964,1964,N,LOW,Y,Y,Y,Y,10,119,1275,1,0.1,"RICHARDSON ASSOCIATES, INC",NR,5,Y,MD DAM SAFETY,,,,,,,MD,,0,-76.08,39.7066
VA03703,ROANOKE CREEK DAM # 35A,2010-06-28,2013-03-12,BUSH FORD BRANCH,DRAKES BRANCH,CHARLOTTE,VA,VA05,ROBERT HURT (R),R,LOCAL GOVERNMENT,SOUTHSIDE SWCD,1960,,N,LOW,Y,Y,Y,Y,45,900,716,2700,2.8,USDA NRCS,Y,0,Y,DCR,55000,USDA NRCS,USDA NRCS,USDA NRCS,,,VA,,0,-78.6366,37.0333
VA03710,ROANOKE CREEK DAM # 4A,2010-06-28,2013-03-12,JENKINS CREEK,CULLEN,CHARLOTTE,VA,VA05,ROBERT HURT (R),R,LOCAL GOVERNMENT,SOUTHSIDE SWCD,1962,,N,LOW,Y,Y,Y,Y,36.29,473,700,2440,1.67,USDA NRCS,Y,0,Y,DCR,24000,USDA NRCS,USDA NRCS,USDA NRCS,,,VA,,0,-78.69,37.16
VA11906,ROSEGILL UPPER DAM,,2013-03-12,TRIB. RAPPAHANNOCK RIVER,BURHANS WHARF,MIDDLESEX,VA,VA01,ROBERT J. WITTMAN (R),R,PRIVATE,"SCOTT, ALFRED & STRUTHER",1960,,N,LOW,Y,Y,Y,Y,9,107,,,,,NR,0,Y,DCR,,,,,,,VA,,0,-76.565,37.6325
MD00093,SHORES OF CALVERT LOWER DAM,2012-06-07,2013-02-04,TR-PATUXENT RIVER,NOTTINGHAM,CALVERT,MD,MD05,STENY H. HOYER (D),D,PRIVATE,SHORES OF CALVERT ASSN,1972,"1995,S",N,LOW,Y,Y,Y,Y,15,126,186,300,0.1,MIKE RODEVICK (1995 REPAIRS); ROBERT D MURPHY (ORIGINAL DESIGN),NR,5,Y,MD DAM SAFETY,,,,,,,MD,,0,-76.6816,38.7383
VA10715,SKALLERUP DAM,,2013-03-12,TR-PANTHER SKIN CREEK,PHILLIPS CORNER,LOUDOUN,VA,VA10,FRANK R. WOLF (R),R,PRIVATE,CHARLIE MORGAN (MR. PETE T. SCAMARDO),1958,,N,,N,N,N,N,26,83,350,,,,NR,0,N,DCR,16372,,USDA NRCS,,,,VA,,0,-77.8666,38.995
VA01512,SOUTH RIVER DAM #11,2011-10-11,2013-03-12,CANADA RUN,LIPSCOMB,AUGUSTA,VA,VA06,BOB GOODLATTE (R),R,LOCAL GOVERNMENT,HEADWATERS SWCD,1957,,N,HIGH,Y,Y,Y,Y,27,292,1150,4028,1.4,USDA NRCS,Y,0,Y,DCR,48400,USDA NRCS,USDA NRCS,USDA NRCS,,,VA,,0,-78.9916,37.9933
VA08104,SPANGLER DAM,,2013-03-12,TR-COOKS BRANCH,ST RT 605,GREENSVILLE,VA,VA04,J. RANDY FORBES (R),R,PRIVATE,GEORGIA PACIFIC CORP.,1955,,N,,Y,Y,Y,Y,23,248,819,2997,,,NR,0,Y,DCR,15242,,USDA NRCS,,,,VA,,0,-77.6416,36.82
VA18703,SPRING LAKE DAM,2009-04-03,2013-03-12,TR-VENUS BRANCH,SHENANDOAH FARMS,WARREN,VA,VA06,BOB GOODLATTE (R),R,PRIVATE,SHENANDOAH FARMS PROP OWNERS ASSOC.,1968,,N,SIGNIFICANT,Y,Y,Y,Y,51,57.5,335,920,0.2,,Y,0,Y,DCR,20321,,USDA NRCS,,,,VA,,0,-78.0333,38.9833
MD00130,ST CLAIR FARM POND,2012-01-19,2013-02-04,"CHURCH BRANCH, TR-BUSH CREEK",MONROVIA,FREDERICK,MD,MD08,CHRIS VAN HOLLEN (D),D,PRIVATE,THOMAS K. ST. CLAIR,1968,1968,N,LOW,Y,Y,Y,Y,18,64,396,10,0.6,SAMUEL ST CLAIR,Y,3,Y,MD DAM SAFETY,,,,,,,MD,,0,-77.2245,39.3416
MD00028,ST MARYS RIVER WATERSHED SITE 1,2012-07-26,2013-02-04,"WESTERN BR, ST. MARYS RIVER",GREAT MILLS,ST. MARYS,MD,MD05,STENY H. HOYER (D),D,STATE,"MD DNR-PUBLIC LANDS, ENGINEERING & CONSTR-SOUTHERN",1975,1975,N,HIGH,Y,Y,Y,Y,43,9600,1670,20576,8.8,USDA NRCS;ALLAN STAHL,Y,1,Y,MD DAM SAFETY,245309,USDA NRCS,USDA NRCS,USDA NRCS,,USDA NRCS,MD,,0,-76.5344,38.2519
VA02918,SUTHERLAND DAM,,2013-03-12,COLE CREEK,NEW CANTON,BUCKINGHAM,VA,VA05,ROBERT HURT (R),R,PRIVATE,M. Y. SUTHERLAND,1973,,N,LOW,Y,Y,Y,Y,18,117,350,,,,NR,0,Y,DCR,11400,,USDA NRCS,,,,VA,,0,-78.2866,37.675
VA11313,SWAIN DAM,,2013-03-12,TR-DEEP RUN,ZEUS,MADISON,VA,VA05,ROBERT HURT (R),R,NOT LISTED,"JOHN W. SKELTON, REV., TRUST ET ALS",1960,,N,LOW,Y,Y,Y,Y,22,90,533,,,,NR,0,Y,DCR,,,,,,,VA,,0,-78.1833,38.4466
VA04707,SWAN DAM,,2013-03-12,TR-JONAS RUN,BRANDY STATION,CULPEPER,VA,VA07,ERIC CANTOR (R),R,PRIVATE,"JAMES D. SWAN, JR.",1955,,N,LOW,Y,Y,Y,Y,20,80,250,,,,NR,0,Y,DCR,,,,,,,VA,,0,-77.935,38.52
VA00919,SWEET BRIAR COLLEGE - LOWER DAM,2006-10-30,2013-03-12,TR-WILLIAMS CREEK,AMHERST,AMHERST,VA,VA06,BOB GOODLATTE (R),R,PRIVATE,SWEET BRIAR COLLEGE,1900,,N,LOW,Y,Y,Y,Y,31.69,177,294,,1,MOD- WILEY & WILSON 1962,Y,0,Y,DCR,,,,,,,VA,,0,-79.08,37.565
VA00920,SWEET BRIAR COLLEGE - UPPER DAM,2006-10-30,2013-03-12,TR-WILLIAMS CREEK,AMHERST,AMHERST,VA,VA06,BOB GOODLATTE (R),R,PRIVATE,SWEET BRIAR COLLEGE,1962,,N,LOW,Y,Y,Y,Y,25.39,66,340,,0.1,WILEY & WILSON 1962,Y,0,Y,DCR,,,,,,,VA,,0,-79.085,37.56
VA00703,SWISS DIXIE DAM,2008-01-08,2013-03-12,TR-BEAVERPOND CREEK,VA STATE ROUTE 648,AMELIA,VA,VA04,J. RANDY FORBES (R),R,PRIVATE,"R&J INVESTMENTS, LLC",1969,,N,,Y,Y,Y,Y,30,363,500,2800,0.44,,Y,0,Y,DCR,,,USDA NRCS,,,,VA,,0,-77.9616,37.315
VA04917,T. EDWARD STIMPSON DAM,,2013-03-12,TR-LITTLE GUINEA CREEK,VA ST RD 640,CUMBERLAND,VA,VA05,ROBERT HURT (R),R,PRIVATE,T. EDWARD STIMPSON JR.,1976,,N,LOW,Y,Y,Y,Y,23,115,,,,,NR,0,Y,DCR,,,,,,,VA,,0,-78.3416,37.39
DE00088,TAILINGS POND NO. 1 DAM GETTY OIL,,2013-02-04,DELAWARE RIVER-OS,REYBOLD,NEW CASTLE,DE,DE00,JOHN C. CARNEY JR. (D),D,PRIVATE,VALERO ENERGY CORPORATION,1960,,N,LOW,N,N,N,N,15,300,1100,,,,NR,0,N,,,,,,,,DE,,0,-75.6133,39.6016
VA04117,TATES DAM,2009-06-01,2013-03-12,GOODE CREEK,US ROUTE-360,CHESTERFIELD,VA,VA07,ERIC CANTOR (R),R,PRIVATE,INEZ TATE,1963,,N,LOW,Y,Y,Y,Y,27,1300,1000,,2.82,,Y,0,Y,DCR,,,,,,,VA,,0,-77.8233,37.385
VA09514,TAYLOR PIT DAM,,2013-03-12,MILL CREEK,DIASCUND,JAMES CITY,VA,VA01,ROBERT J. WITTMAN (R),R,PRIVATE,STEWART TAYLOR,1964,,N,LOW,Y,Y,Y,Y,18,122,,,,,NR,0,Y,DCR,,,,,,,VA,,0,-76.82,37.3966
VA03310,TEMPLES MILL DAM,,2013-03-12,TRIB. SOUTH RIVER,LADYSMITH,CAROLINE,VA,VA01,ROBERT J. WITTMAN (R),R,PRIVATE,WALLACE L. DAWSON,1850,,N,SIGNIFICANT,Y,Y,Y,Y,27,470,,,,,N,0,Y,DCR,,,,,,,VA,,0,-77.58,38.0311
VA05918,TIMBERLAKE DAM,,2013-03-12,SOUTH FORK RUN,HUNTER,FAIRFAX,VA,VA10,FRANK R. WOLF (R),R,PRIVATE,MR. JOE YOUNG,1954,,N,SIGNIFICANT,N,N,N,N,22,42,400,,0.1,,N,0,N,DCR,,,,,,,VA,,0,-77.3416,38.9033
